충전소명,충전소위치상세,설치시도명,휴점일,이용가능시작시각,이용가능종료시각,완속충전가능여부,급속충전가능여부,급속충전타입구분,완속충전기대수,급속충전기대수,주차료부과여부,소재지도로명주소,소재지지번주소,관리업체명,관리업체전화번호,위도,경도,데이터기준일자,제공기관코드,제공기관명,
홈플러스 구월점,"인천광역시 남동구 예술로 198 , 지하주차장 4층 I4구역(구월동 1130)",인천광역시,-,09:00,23:59,N,Y,DC차데모+AC3상,0,1,Y,"인천광역시 남동구 예술로 198 , 지하주차장 4층 I4구역(구월동 1130)",인천광역시 남동구 구월동 1130,환경부(한국자동차환경협회),1661-9408,37.4517361878,126.7019408,2019-06-27,3530000,인천광역시 남동구,
중부지방고용노동청 별관 앞,인천광역시 남동구 구월동 1111-6,인천광역시,-,00:00,23:59,N,Y,DC차데모+AC3상+DC콤보,0,1,Y,"인천광역시 남동구 문화로 135, 중부지방고용노동청 별관 앞",인천광역시 남동구 구월동 1111-6,환경부(한국자동차환경협회),1661-9408,37.4511354259,126.6995303,2019-06-27,3530000,인천광역시 남동구,
인천시청,"인천광역시 남동구 정각로 29 , 정문 우측 경비실 앞(구월동 1138)",인천광역시,-,00:00,23:59,N,Y,DC차데모+AC3상+DC콤보,0,1,Y,"인천광역시 남동구 정각로 29 , 정문 우측 경비실 앞(구월동 1138)",인천광역시 남동구 구월동 1138,환경부(한국자동차환경협회),1661-9408,37.4562553577,126.7047010106,2019-06-27,3530000,인천광역시 남동구,
인천교통공사 본사,인천광역시 남동구 경인로 674,인천광역시,-,00:00,23:59,N,Y,DC차데모+AC3상+DC콤보,0,1,N,인천광역시 남동구 경인로 674,인천광역시 남동구 간석동 67-2,환경부(한국자동차환경협회),1661-9408,37.4698160389,126.7085318573,2019-06-27,3530000,인천광역시 남동구,
인천아시안게임 남동경기장 1주차장,인천광역시 남동구 수산동 394-54,인천광역시,-,00:00,23:59,N,Y,DC콤보,0,2,N,인천광역시 남동구 수산동 394-54,인천광역시 남동구 수산동 394-54,환경부(한국자동차환경협회),1661-9408,37.4392317,126.731229,2019-06-27,3530000,인천광역시 남동구,
소래제1주차장,인천광역시 남동구 논현동 754-4,인천광역시,-,00:00,23:59,N,Y,DC콤보,0,2,N,인천광역시 남동구 논현동 754-4,인천광역시 남동구 논현동 754-4,환경부(한국자동차환경협회),1661-9408,37.411903,126.730045,2019-06-27,3530000,인천광역시 남동구,
늘솔길공원 3주차장,인천광역시 남동구 논현동 762-3,인천광역시,-,00:00,23:59,N,Y,DC콤보,0,2,N,인천광역시 남동구 논현동 762-3,인천광역시 남동구 논현동 762-3,환경부(한국자동차환경협회),1661-9408,37.3871540506,126.7207448418,2019-06-27,3530000,인천광역시 남동구,
남동복지관,인천광역시 남동구 소래로 645,인천광역시,-,00:00,23:59,N,Y,DC콤보,0,2,N,인천광역시 남동구 소래로 645,인천광역시 남동구 만수동 984-6,환경부(한국자동차환경협회),1661-9408,37.4476235,126.7330404,2019-06-27,3530000,인천광역시 남동구,
장수서창 공영주차장,인천광역시 남동구 서창동 558-3,인천광역시,-,00:00,23:59,N,Y,DC콤보,0,2,N,인천광역시 남동구 서창동 558-3,인천광역시 남동구 서창동 558-3,환경부(한국자동차환경협회),1661-9408,37.4357347,126.7452621,2019-06-27,3530000,인천광역시 남동구,
LH인천본부,인천광역시 남동구 논현로46번길 23,인천광역시,-,09:00,18:00,N,Y,DC차데모+AC3상+DC콤보,0,2,Y,인천광역시 남동구 논현로46번길 23,인천광역시 남동구 논현동 639-1,한국전력,1899-2100,37.4010376541,126.7120195105,2019-06-27,3530000,인천광역시 남동구,
인천광역시 LGBESTSHOP(남동구청점),인천광역시 남동구 소래로 668,인천광역시,-,00:00,23:59,Y,N,-,1,,N,인천광역시 남동구 소래로 668 주차장,인천광역시 남동구 만수동 1072,포스코ICT,1600-4047,37.4490459874,126.7345745,2019-06-27,3530000,인천광역시 남동구,
인천대공원사업소,인천광역시 남동구 무네미로 236,인천광역시,-,00:00,23:59,Y,N,-,2,0,N,인천광역시 남동구 무네미로 236,인천광역시 남동구 장수동 산164,한국전기차충전서비스,1522-1782,37.4576940,126.7492907208,2019-06-27,3530000,인천광역시 남동구,
인천대공원사업소 정문,"인천광역시 남동구 무네미로 238 (장수동, 인천대공원)",인천광역시,-,10:00,18:00,Y,N,-,1,0,N,"인천광역시 남동구 무네미로 238 (장수동, 인천대공원)",인천광역시 남동구 장수동 산78,한국전기차충전서비스,1522-1782,37.4585949158,126.7519687055,2019-06-27,3530000,인천광역시 남동구,
인천광역시 한전KDN 인천지사,인천광역시 남동구 인주대로 885,인천광역시,-,00:00,23:59,Y,N,-,1,0,Y,인천광역시 남동구 인주대로 885 주차장,인천광역시 남동구 만수동 1072-5,포스코ICT,1600-4047,37.4486122927,126.7356019,2019-06-27,3530000,인천광역시 남동구,
인천서부 시승센터(고객만 이용가능),인천광역시 남동구 인주대로 629,인천광역시,-,10:00,18:00,Y,N,-,1,0,N,인천광역시 남동구 인주대로 629,인천광역시 남동구 구월동 1145-7,현대자동차,032-425-7365,37.4501376551,126.7069356171,2019-06-27,3530000,인천광역시 남동구,
LH인천지역본부,인천광역시 남동구 논현로 46번길 23,인천광역시,-,00:00,23:59,Y,N,-,2,0,Y,인천광역시 남동구 논현로 46번길 23 지하 2층 주차장 중간 부근(논현동 639-1 지하 2층 주차장 중간 부근),인천광역시 남동구 논현동 639-1,지엔텔,1544-4279,37.4010376541,126.7120195105,2019-06-27,3530000,인천광역시 남동구,
인천광역시청,인천광역시 남동구 정각로 29,인천광역시,-,00:00,23:59,Y,N,-,3,0,N,인천광역시 남동구 정각로 29 지상주차장(구월동),인천광역시 남동구 구월동 1138,지엔텔,1544-4279,37.4562553577,126.7047010106,2019-06-27,3530000,인천광역시 남동구,
형제전기,인천광역시 남동구 남동대로 150 (고잔동),인천광역시,-,00:00,23:59,Y,N,-,2,0,Y,인천광역시 남동구 남동대로 150 (고잔동),인천광역시 남동구 고잔동 672,케이티,1522-4700,37.3989201882,126.6940525349,2019-06-27,3530000,인천광역시 남동구,
소래포구종합어시장,"인천광역시 남동구 소래역로 12 (논현동, 소래포구종합어시장)",인천광역시,-,00:00,23:59,Y,N,-,1,0,Y,"인천광역시 남동구 소래역로 12 (논현동, 소래포구종합어시장)",인천광역시 남동구 논현동 680-1,케이티,1522-4700,37.3987355807,126.7371771166,2019-06-27,3530000,인천광역시 남동구,
삼천리기계,인천광역시 남동구 남동대로 99 (고잔동),인천광역시,-,00:00,23:59,Y,N,-,1,0,Y,인천광역시 남동구 남동대로 99 (고잔동),인천광역시 남동구 고잔동 693-2,케이티,1522-4700,37.3959653511,126.6900938324,2019-06-27,3530000,인천광역시 남동구,
인천논현푸르지오(입주민),인천광역시 남동구 청능대로 596 (논현동),인천광역시,-,00:00,23:59,Y,N,-,5,0,Y,인천광역시 남동구 청능대로 596 (논현동),인천광역시 남동구 논현동 650-1,케이티,1522-4700,37.4006231625,126.7256506663,2019-06-27,3530000,인천광역시 남동구,
구월4동주민센터,인천광역시 남동구 구월말로 7,인천광역시,-,09:00,18:00,Y,N,-,1,0,N,인천광역시 남동구 구월말로 7 구월4동주민센터,인천광역시 남동구 구월동 1296-6,에버온,1661-7766,37.4496382845,126.7240559,2019-06-27,3530000,인천광역시 남동구,
구월3동주민센터,인천광역시 남동구 문화서로 84,인천광역시,-,09:00,18:00,Y,N,-,1,0,N,인천광역시 남동구 문화서로 84 구월3동주민센터,인천광역시 남동구 구월동 1098-7,에버온,1661-7766,37.4526543,126.6969208,2019-06-27,3530000,인천광역시 남동구,
구월2동주민센터,인천광역시 남동구 구월로 208,인천광역시,-,09:00,18:00,Y,N,-,1,0,N,인천광역시 남동구 구월로 208 구월2동주민센터,인천광역시 남동구 구월동 23-1,에버온,1661-7766,37.4561108781,126.7133431,2019-06-27,3530000,인천광역시 남동구,
간석3동주민센터,인천광역시 남동구 용천로 186,인천광역시,-,09:00,18:00,Y,N,-,1,0,N,인천광역시 남동구 용천로 186 간석3동주민센터,인천광역시 남동구 간석동 49-1,에버온,1661-7766,37.4661116874,126.7146172,2019-06-27,3530000,인천광역시 남동구,
장수서창동주민센터,인천광역시 남동구 독곡로 28(서창동) 장수서창동주민센터,인천광역시,-,09:00,18:00,Y,N,-,1,0,N,인천광역시 남동구 독곡로 28(서창동) 장수서창동주민센터,인천광역시 남동구 서창동 558-2,에버온,1661-7766,37.4358832701,126.7473657727,2019-06-27,3530000,인천광역시 남동구,
만수6동주민센터,인천광역시 남동구 장승남로 47(만수동) 만수6동주민센터,인천광역시,-,09:00,18:00,Y,N,-,1,0,N,인천광역시 남동구 장승남로 47(만수동) 만수6동주민센터,인천광역시 남동구 만수동 1020,에버온,1661-7766,37.4437265,126.7376429,2019-06-27,3530000,인천광역시 남동구,
만수5동주민센터,인천광역시 남동구 만경로28번길 3(만수동) 만수5동주민센터,인천광역시,-,09:00,18:00,Y,N,-,1,0,N,인천광역시 남동구 만경로28번길 3(만수동) 만수5동주민센터,인천광역시 남동구 만수동 876,에버온,1661-7766,37.4577629,126.7277420,2019-06-27,3530000,인천광역시 남동구,
만수4동주민센터,인천광역시 남동구 만수로50번길 39(만수동) 만수4동주민센터,인천광역시,-,09:00,18:00,Y,N,-,1,0,N,인천광역시 남동구 만수로50번길 39(만수동) 만수4동주민센터,인천광역시 남동구 만수동 21,에버온,1661-7766,37.4594550,126.7356288,2019-06-27,3530000,인천광역시 남동구,
만수3동주민센터,인천광역시 남동구 서판로 11(만수동) 만수3동주민센터,인천광역시,-,09:00,18:00,Y,N,-,1,0,N,인천광역시 남동구 서판로 11(만수동) 만수3동주민센터,인천광역시 남동구 만수동 847-1,에버온,1661-7766,37.4619204,126.7230033091,2019-06-27,3530000,인천광역시 남동구,
만수2동주민센터,인천광역시 남동구 만수서로 46(만수동) 만수2동주민센터,인천광역시,-,09:00,18:00,Y,N,-,1,0,N,인천광역시 남동구 만수서로 46(만수동) 만수2동주민센터,인천광역시 남동구 만수동 1116-2,에버온,1661-7766,37.4613893968,126.7311617448,2019-06-27,3530000,인천광역시 남동구,
만수1동주민센터,인천광역시 남동구 인주대로 851(만수동) 만수1동주민센터,인천광역시,-,09:00,18:00,Y,N,-,1,0,N,인천광역시 남동구 인주대로 851(만수동) 만수1동주민센터,인천광역시 남동구 만수동 983-5,에버온,1661-7766,37.4487194145,126.7319587,2019-06-27,3530000,인천광역시 남동구,
논현고잔동주민센터,인천광역시 남동구 앵고개로847번길 32(논현동) 논현고잔동주민센터,인천광역시,-,09:00,18:00,Y,N,-,1,0,N,인천광역시 남동구 앵고개로847번길 32(논현동) 논현고잔동주민센터,인천광역시 남동구 논현동 744-4,에버온,1661-7766,37.3977668402,126.7263883829,2019-06-27,3530000,인천광역시 남동구,
논현2동주민센터,인천광역시 남동구 논현고잔로 248 (논현동) 논현2동주민센터,인천광역시,-,09:00,18:00,Y,N,-,1,0,N,인천광역시 남동구 논현고잔로 248 (논현동) 논현2동주민센터,인천광역시 남동구 논현동 633-3,에버온,1661-7766,37.4042234154,126.7163847,2019-06-27,3530000,인천광역시 남동구,
논현1동주민센터,인천광역시 남동구 소래역로 115(논현동) 논현1동주민센터,인천광역시,-,09:00,18:00,Y,N,-,1,0,N,인천광역시 남동구 소래역로 115(논현동) 논현1동주민센터,인천광역시 남동구 논현동 603-5,에버온,1661-7766,37.4056486,126.7293105,2019-06-27,3530000,인천광역시 남동구,
간석1동주민센터,인천광역시 남동구 구월로137번길 39 (간석동) 간석1동주민센터,인천광역시,-,09:00,18:00,Y,N,-,1,0,N,인천광역시 남동구 구월로137번길 39 (간석동) 간석1동주민센터,인천광역시 남동구 간석동 353-4,에버온,1661-7766,37.4586138538,126.7052772,2019-06-27,3530000,인천광역시 남동구,
한국전기안전공사 인천지역본부(직원),인천광역시 남동구 성말로 13번길 36-9,인천광역시,-,10:00,18:00,Y,N,-,2,0,Y,인천광역시 남동구 성말로13번길 36-9 한국전기안전공사 인천지역본부,인천광역시 남동구 구월동 1452-1,대영채비,1522-2573,37.4472949286,126.7029506784,2019-06-27,3530000,인천광역시 남동구,
목포관광안내소,전라남도 목포시 영산로 843 목포관광안내소 옆(무안에서 목포로진입해서 오른쪽 목포관광안내소옆),전라남도,연중무휴,00:00,00:00,N,Y,,0,1,N,전라남도 목포시 영산로 843,,한국자동차환경협회,,34.838268,126.422267,2019-10-08,4800000,전라남도 목포시,
목포시청 민원주차장,전라남도 목포시청 의회 뒷편주차장,전라남도,연중무휴,00:00,00:00,N,Y,,1,1,N,전라남도 목포시 양을로 203,,한국자동차환경협회,,34.8115341357,126.3912845125,2019-10-08,4800000,전라남도 목포시,
한국전력,전라남도 목포시 한국전력공사목포지점내,전라남도,연중무휴,00:00,00:00,N,Y,,0,1,N,전라남도 목포시 삼학로370,,한국전력,,34.8040442948,126.4093622424,2019-10-08,4800000,전라남도 목포시,
목포시 LGBESTSHOP(목포상동점),전라남도 목포시 상동LG전자주차장내,전라남도,연중무휴,00:00,00:00,Y,N,,1,0,N,전라남도 목포시 백년대로282,,포스코ICT,,34.8028650840,126.4190615839,2019-10-08,4800000,전라남도 목포시,
북항광장 공영주차장,전라남도 목포시 죽교천로 131,전라남도,연중무휴,00:00,00:00,N,Y,,0,1,N,전라남도 목포시 죽교천로 131,,한국전력,,34.80293052,126.3684417,2019-10-08,4800000,전라남도 목포시,
자동차등록사무소,전라남도 목포시 연산로 197(연산동),전라남도,연중무휴,00:00,00:00,N,Y,,0,1,N,전라남도 목포시 연산로 197,,한국전력,,34.81306209,126.3765482,2019-10-08,4800000,전라남도 목포시,
원형2공영주차장,전라남도 목포시 상동 1130(롯데시네마 옆),전라남도,연중무휴,00:00,00:00,N,Y,,0,1,N,전라남도 목포시 원형로 42,,한국전력,,34.79921837,126.4323845,2019-10-08,4800000,전라남도 목포시,
원형1공영주차장,전라남도 목포시 원형로 8,전라남도,연중무휴,00:00,00:00,N,Y,,0,1,N,전라남도 목포시 원형로 8,,한국전력,,34.7981905,126.4302622,2019-10-08,4800000,전라남도 목포시,
신흥동 주민센터,전라남도 목포시 하당로 66(상동),전라남도,연중무휴,00:00,00:00,N,Y,,0,1,N,전라남도 목포시 하당로 66,,한국전력,,34.79884473,126.4188199,2019-10-08,4800000,전라남도 목포시,
부주동 행정복지센터,전라남도 목포시 남악1로 51번가길 2(옥암동),전라남도,연중무휴,00:00,00:00,N,Y,,0,1,N,전라남도 목포시 남악1로 51,,한국전력,,34.8094639472,126.4446849838,2019-10-08,4800000,전라남도 목포시,
동부시장공영주차장,전라남도 목포시 영산로 257번길 15(동부시장 옆),전라남도,연중무휴,00:00,00:00,N,Y,,0,1,N,전라남도 목포시 영산로 257번길 15,,한국전력,,34.80454186,126.3933685883,2019-10-08,4800000,전라남도 목포시,
목포유통센터,전라남도 목포시 선곡로 33,전라남도,연중무휴,00:00,00:00,N,Y,,0,2,N,전라남도 목포시 선곡로 33,,한국전력,,34.8191543065,126.4295625976,2019-10-08,4800000,전라남도 목포시,
충청북도 제천시 한국전력제천지사,외부 주차장,충청북도,연중무휴,00:00,23:59,Y,N,,1,,N,충청북도 제천시 풍양로 57(의림동),충청북도 제천시 의림동 117 한국전력제천지점,,,37.139300,128.206638,2019-09-23,4400000,충청북도 제천시,
충청북도 제천시 청풍면사무소,외부 주차장,충청북도,연중무휴,00:00,23:59,Y,N,,1,,N,충청북도 제천시 청풍면 청풍호로 2115,충청북도 제천시 청풍면 물태리 133 청풍면사무소,,,37.000946,128.168571,2019-09-23,4400000,충청북도 제천시,
충청북도 제천시 관광정보센터,외부 주차장,충청북도,연중무휴,00:00,23:59,Y,N,,1,,N,충청북도 제천시 청풍면 청풍호로50길 6,충청북도 제천시 청풍면 교리 147,,,37.0108335579,128.1811894602,2019-09-23,4400000,충청북도 제천시,
충청북도 제천시 수산면사무소,외부 주차장,충청북도,연중무휴,00:00,23:59,Y,N,,1,,N,충청북도 제천시 수산면 월악로26길 39,충청북도 제천시 수산면 수산리 601-7,,,36.9338282965,128.1807631713,2019-09-23,4400000,충청북도 제천시,
충청북도 제천시 수산복지회관,외부 주차장,충청북도,연중무휴,00:00,23:59,Y,N,,1,,N,충청북도 제천시 수산면 지곡로 1,충청북도 제천시 수산면 수산리 609-9,,,36.934616,128.185277,2019-09-23,4400000,충청북도 제천시,
충청북도 제천시 금성면사무소,외부 주차장,충청북도,연중무휴,00:00,23:59,Y,N,,1,,N,충청북도 제천시 금성면 청풍호로 1045,충청북도 제천시 금성면 구룡리 66-11,,,37.0618247153,128.168412,2019-09-23,4400000,충청북도 제천시,
충청북도 제천시 덕산면사무소,외부 주차장,충청북도,연중무휴,00:00,23:59,Y,N,,1,,N,충청북도 제천시 덕산면 약초로 59,충청북도 제천시 덕산면 도전리 800-1,,043-641-4202,36.912033,128.164399,2019-09-23,4400000,충청북도 제천시,
충청북도 제천시 신백동주민센터,외부 주차장,충청북도,연중무휴,00:00,23:59,Y,N,,1,,N,충청북도 제천시 의병대로34길 50,충청북도 제천시 신백동 306-1,,,37.128379,128.223249,2019-09-23,4400000,충청북도 제천시,
충청북도 제천시 봉양읍행정복지센터,외부 주차장,충청북도,연중무휴,00:00,23:59,Y,N,,1,,N,충청북도 제천시 봉양읍 주포로 83,충청북도 제천시 봉양읍 주포리 164-2,,043-641-4023,37.1328484547,128.1215631231,2019-09-23,4400000,충청북도 제천시,
충청북도 제천시 한수면사무소,외부 주차장,충청북도,연중무휴,00:00,23:59,Y,N,,1,,N,충청북도 제천시 한수면 미륵송계로8길 26,충청북도 제천시 한수면 송계리 282 한수면사무소,,,36.885498,128.081865,2019-09-23,4400000,충청북도 제천시,
충청북도 제천시 백운면사무소,외부 주차장,충청북도,연중무휴,00:00,23:59,Y,N,,1,,N,충청북도 제천시 백운면 애련로 13,충청북도 제천시 백운면 평동리 209-2 백운면사무소,,043-641-4282,37.137770,128.025817,2019-09-23,4400000,충청북도 제천시,
충청북도 제천시 건설민원동 주차장,외부 주차장,충청북도,연중무휴,00:00,23:59,N,Y,AC3상+DC차 데모,,1,N,충청북도 제천시 내토로 295(천남동),충청북도 제천시 천남동 12-2 제천시청,,043-641-5723,37.133013,128.191499,2019-09-23,4400000,충청북도 제천시,
충청북도 제천시 송학면사무소,외부 주차장,충청북도,연중무휴,00:00,23:59,Y,N,,1,,N,충청북도 제천시 송학면 시곡포전로1길 14-2,충청북도 제천시 송학면 시곡리 1157 송학면사무소,,043-641-4323,37.184938,128.260917,2019-09-23,4400000,충청북도 제천시,
충청북도 제천시 영서동주민센터,외부 주차장,충청북도,연중무휴,00:00,23:59,Y,N,,1,,N,충청북도 제천시 동명로 11(서부동),충청북도 제천시 서부동 1155 영서동주민센터,,,37.132810,128.201785,2019-09-23,4400000,충청북도 제천시,
충청북도 제천시 용두동주민센터,외부 주차장,충청북도,연중무휴,00:00,23:59,Y,N,,1,,N,충청북도 제천시 용두대로17길 8,충청북도 제천시 하소동 323-24,,043-641-4512,37.1423156970,128.200392,2019-09-23,4400000,충청북도 제천시,
무주읍주민자치센터,전북 무주군 무주읍 향학로 49번,전라북도,없음,00:00,23:59,N,Y,"DC차데모, AC3상, DC콤보",0,1,N,전라북도 무주군 무주읍 향학로 49,전라북도 무주군 무주읍 읍내리 315-1,,1661-9408,36.0086584853,127.6618419427,2019-11-25,4740000,전라북도 무주군,
안성면주민자치센터,전북 무주군 안성면 안성로 246-17,전라북도,없음,00:00,23:59,N,Y,"DC차데모, AC3상, DC콤보",0,1,N,전라북도 무주군 안성면 안성로 246-17,전라북도 무주군 안성면 장기리 1556,,1661-9409,35.8634832965,127.6530465099,2019-11-25,4740000,전라북도 무주군,
무주예체문화관,전라북도 무주군 무주읍 한풍루로 326-17,전라북도,없음,00:00,23:59,Y,N,"DC차데모, AC3상, DC콤보",0,1,N,전라북도 무주군 무주읍 한풍루로 326-17,전라북도 무주군 무주읍 당산리 1199-3,,,36.0023606058,127.6625301902,2019-11-25,4740000,전라북도 무주군,
덕유산국립공원 관리사무소,전라북도 무주군 설천면 구천동1로 159,전라북도,없음,00:00,23:59,N,Y,"DC차데모, AC3상, DC콤보",0,1,N,전라북도 무주군 설천면 구천동1로 159,전라북도 무주군 설천면 삼공리 411-8,,,35.9007111,127.7751040346,2019-11-25,4740000,전라북도 무주군,
한국전력 무주지사,전라북도 무주군 무주읍 죽향로 31-16,전라북도,없음,00:00,23:59,N,Y,"DC차데모, AC3상, DC콤보",0,1,N,전라북도 무주군 무주읍 죽향로 31-16,전라북도 무주군 무주읍 읍내리 1280-2,,,36.0088808,127.654327,2019-11-25,4740000,전라북도 무주군,
덕유산휴게소(하남방향),전라북도 무주군 안성면 통영대전고속도로 148,전라북도,없음,00:00,23:59,N,Y,"DC차데모, AC3상, DC콤보",0,1,N,전라북도 무주군 안성면 통영대전고속도로 148,전라북도 무주군 안성면 공진리 471,,,35.8176313156,127.6458058760,2019-11-25,4740000,전라북도 무주군,
인창문화센터,1층 주차장,경기도,연중무휴,00:00,00:00,N,Y,AC3상+DC차데모+DC콤보,0,1,N,경기도 구리시 동구릉로53번길 34(인창동),경기도 구리시 인창동 527-37,한국전력,031-560-3237,37.606411,127.133104,2019-04-23,3980000,경기도 구리시,
롯데아울렛 구리점,지하3층 주차장,경기도,연중무휴,00:00,00:00,Y,N,,2,0,N,경기도 구리시 동구릉로136번길 47(인창동),경기도 구리시 인창동 419-7,포스코ICT,031-723-2532,37.611879,127.140545067,2019-04-23,3980000,경기도 구리시,
구리시 교문자동차공업사,정비소입구 주차장,경기도,연중무휴,00:00,00:00,Y,N,,1,0,N,경기도 구리시 동구릉로200번길 18(인창동),경기도 구리시 인창동 71,포스코ICT,031-723-2532,37.6163408,127.1390448,2019-04-23,3980000,경기도 구리시,
한국전력 구리지사,1층 주차장,경기도,연중무휴,06:00,23:00,N,Y,AC3상+DC차데모+DC콤보,0,2,N,경기도 구리시 안골로 31(교문동),경기도 구리시 교문동 733,한국전력,031-560-3237,37.5977906,127.134918,2019-04-23,3980000,경기도 구리시,
구리시청,본관 건축과 옆 주차장,경기도,연중무휴,00:00,00:00,N,Y,AC3상+DC차데모+DC콤보,0,1,Y,경기도 구리시 아차산로 439(교문동),경기도 구리시 교문동 390-1,환경부(한국자동차환경협회),1661-9408,37.5944593,127.1297442,2019-04-23,3980000,경기도 구리시,
갈매중앙공원,물놀이장 근처 주차장,경기도,연중무휴,00:00,00:00,N,Y,AC3상+DC차데모+DC콤보,0,1,N,,경기도 구리시 갈매동 301-5,한국전기차충전서비스,02-562-5578,37.632971,127.118605,2019-04-23,3980000,경기도 구리시,
구리경찰서,본관왼쪽서편주차장,경기도,연중무휴,00:00,00:00,N,Y,AC3상+DC차데모+DC콤보,0,1,N,경기도 구리시 아차산로 359(교문동),경기도 구리시 교문동 462-3,한국전기차충전서비스,02-562-5578,37.587279,127.128911,2019-04-23,3980000,경기도 구리시,
구리농수산물공사도매시장,친환경유기농농산물전문매장 근처 주차장,경기도,연중무휴,00:00,00:00,N,Y,AC3상+DC차데모+DC콤보,0,1,N,경기도 구리시 동구릉로136번길 90(인창동),경기도 구리시 인창동 127,한국전기차충전서비스,02-562-5578,37.6132366,127.1448505,2019-04-23,3980000,경기도 구리시,
구리시 교문1동 행정복지센터,지상주차장,경기도,연중무휴,00:00,00:00,Y,N,,1,0,N,경기도 구리시 경춘로 111(교문동),경기도 구리시 교문동 262-4,포스코ICT,031-723-2532,37.601174,127.127681,2019-04-23,3980000,경기도 구리시,
구리시 보건소,지하1층 주차장,경기도,연중무휴,00:00,00:00,Y,N,,1,0,N,경기도 구리시 건원대로34번길 84(인창동),경기도 구리시 인창동 674-3,포스코ICT,031-723-2532,37.6045574,127.145081,2019-04-23,3980000,경기도 구리시,
구리시 수택1동 행정복지센터,지상주차장,경기도,연중무휴,00:00,00:00,Y,N,,1,0,N,경기도 구리시 검배로93번길 35(수택동),경기도 구리시 수택동 495-8,포스코ICT,031-723-2532,37.596421,127.149148,2019-04-23,3980000,경기도 구리시,
구리시 수택2동 행정복지센터,지상주차장,경기도,연중무휴,00:00,00:00,Y,N,,1,0,N,경기도 구리시 원수택로12번길 16(수택동),경기도 구리시 수택동 445-28,포스코ICT,031-723-2532,37.593192,127.140062,2019-04-23,3980000,경기도 구리시,
구리휴게소(외측방향),소형차 주차장 중앙,경기도,연중무휴,00:00,00:00,N,Y,AC3상+DC차데모+DC콤보,0,1,N,경기도 구리시 서울외곽순환고속도로 32(사노동),경기도 구리시 사노동 170-13,환경부(한국자동차환경협회),031-529-3564,37.6277895895,127.139365191,2019-04-23,3980000,경기도 구리시,
장자마을 동양아파트,지하1층 주차장,경기도,연중무휴,00:00,00:00,Y,N,,3,0,Y,"경기도 구리시 장자대로 66(교문동, 동양아파트)",경기도 구리시 교문동 825,지엔텔,031-555-4504,37.5867021,127.1369746,2019-04-23,3980000,경기도 구리시,
구리시 동구동 행정복지센터,주차장,경기도,연중무휴,00:00,00:00,Y,N,,1,0,N,경기도 구리시 동구릉로148번길 25,경기도 구리시 인창동 699-1,포스코ICT,031-723-2532,37.611730,127.139300,2019-04-23,3980000,경기도 구리시,
구리갈매푸르지오아파트,단지내,경기도,연중무휴,00:00,00:00,Y,N,,13,0,N,경기도 구리시 갈매중앙로 16,경기도 구리시 갈매동 640,포스코ICT,031-723-2532,37.6265946713,127.11442753,2019-04-23,3980000,경기도 구리시,
구리시 수택3동 행정복지센터,주차장,경기도,연중무휴,00:00,00:00,N,Y,DC콤보,0,2,Y,경기도 구리시 체육관로 74,경기도 구리시 수택동 848,한국전기차충전서비스,02-562-5578,37.591400,127.1386065,2019-04-23,3980000,경기도 구리시,
한국지엠구리바로서비스,주차장,경기도,연중무휴,00:00,00:00,Y,N,,1,0,N,경기도 구리시 한다리길 21,경기도 구리시 교문동 640-2,케이티,1522-0123,37.580410,127.127400,2019-04-23,3980000,경기도 구리시,
해남광장,외부 주차장,전라남도,연중무휴,00:00,23:59,N,Y,,,1,N,전라남도 해남군 해남읍 해남로 160-60,전라남도 해남군 해남읍 신안리 6,한국자동차환경협회,070-4027-0546,34.5661912,126.622121,2019-06-19,4930000,전라남도 해남군,
우수영관광지,외부 주차장,전라남도,연중무휴,00:00,23:59,N,Y,,,1,N,전라남도 해남군 문내면 관광레저로 12,전라남도 해남군 문내면 학동리 1021,한국자동차환경협회,070-4027-0546,34.5728862,126.3103284,2019-06-19,4930000,전라남도 해남군,
땅끝해변주차장,외부 주차장,전라남도,연중무휴,00:00,23:59,N,Y,,,1,N,전라남도 해남군 송지면 송호리 1051,전라남도 해남군 송지면 송호리 1051,한국자동차환경협회,070-4027-0546,34.3120031,126.5208404,2019-06-19,4930000,전라남도 해남군,
해남군청 주차장,외부 주차장,전라남도,연중무휴,00:00,23:59,N,Y,,,1,N,전라남도 해남군 해남읍 수성리 184-2,전라남도 해남군 해남읍 수성리 184-2,한국자동차환경협회,070-4027-0546,34.574341,126.597913,2019-06-19,4930000,전라남도 해남군,
두륜산도립공원,외부 주차장,전라남도,연중무휴,00:00,23:59,N,Y,,,1,N,전라남도 해남군 삼산면 구림리 146-14,전라남도 해남군 삼산면 구림리 146-14,한국자동차환경협회,070-4027-0546,34.497731,126.619697,2019-06-19,4930000,전라남도 해남군,
우항리 공룡화석지,외부 주차장,전라남도,연중무휴,00:00,23:59,N,Y,,,1,N,전라남도 해남군 황산면 공룡박물관길 234,전라남도 해남군 황산면 우항리 191,해남군청,061-530-5640,34.58908885,126.442833,2019-06-19,4930000,전라남도 해남군,
광도면행정복지센터,입구주차장,경상남도,연중무휴,09:00,24:00,Y,N,,1,0,N,경상남도 통영시 광도면 노산길 115,경상남도 통영시 광도면 노산리 391-1,KT,1522-4700,34.899763,128.406932496,2019-08-22,5330000,경상남도 통영시,
도천동행정복지센터,센터입구주차장,경상남도,연중무휴,09:00,24:00,Y,N,,1,0,N,경상남도 통영시 평인일주로 36,경상남도 통영시 인평동 148,KT,1522-4700,34.839311,128.400761,2019-08-22,5330000,경상남도 통영시,
봉평동행정복지센터,센터입구주차장,경상남도,연중무휴,09:00,24:00,Y,N,,1,0,N,경상남도 통영시 도남로 185,경상남도 통영시 도남동 399-2,KT,1522-4700,34.829616,128.424366,2019-08-22,5330000,경상남도 통영시,
북신동행정복지센터,센터입구주차장,경상남도,연중무휴,09:00,24:00,Y,N,,1,0,N,경상남도 통영시 여황로 403-6,경상남도 통영시 북신동 698-3,KT,1522-4700,34.857037,128.425589,2019-08-22,5330000,경상남도 통영시,
신세계종합정비,사무실옆주차장,경상남도,연중무휴,09:00,24:00,N,Y,"Dc차데모,DC콤보,AC3상",0,1,N,경상남도 통영시 광도면 죽림2로 14-36,경상남도 통영시 광도면 죽림리 292-33,환경부,1661-9408,34.879462571,128.413655962,2019-08-22,5330000,경상남도 통영시,
이마트통영점,2층주차장,경상남도,"둘째,넷째 일요일",10:00,23:00,N,Y,"Dc차데모,DC콤보,AC3상",0,1,N,경상남도 통영시 광도면 죽림4로 9,경상남도 통영시 광도면 죽림리 1566-2,한국전력,1899-2100,34.887138,128.418091,2019-08-22,5330000,경상남도 통영시,
케이블카제2주차장,주차타워 입구,경상남도,"둘째,넷째 월요일",09:00,24:00,N,Y,,0,1,N,경상남도 통영시 발개로 205,경상남도 통영시 광도면 도남동 349-1,한국전력,1899-2100,34.8266490052,128.425125642,2019-08-22,5330000,경상남도 통영시,
학섬휴게소,입구주차장,경상남도,연중무휴,09:00,24:00,N,Y,"Dc차데모,DC콤보,AC3상",0,1,N,경상남도 통영시 도산면 남해안도로 1869,경상남도 통영시 도산면 도선리 374-6,환경부,1661-9408,34.9178682524,128.358084062,2019-08-22,5330000,경상남도 통영시,
한전통영지사,입구주차장,경상남도,연중무휴,09:00,24:00,N,Y,"Dc차데모,DC콤보,AC3상",0,1,N,경상남도 통영시 광도면 죽림2로 25-40,경상남도 통영시 광도면 죽림리 1575-2,한국전력,1899-2100,34.882482,128.416954172,2019-08-22,5330000,경상남도 통영시,
미수동행정복지센터,센터입구주차장,경상남도,연중무휴,09:00,24:00,Y,N,,1,0,N,경상남도 통영시 미수해안로 51-1,경상남도 통영시 미수동 292-33,KT,1522-4700,34.8304936,128.406093114,2019-08-22,5330000,경상남도 통영시,
롯데마트 통영점,4층주차장,경상남도,"둘째,넷째 일요일",10:00,23:00,N,Y,,0,1,N,경상남도 통영시 무전대로 65,경상남도 통영시 무전동 1069,한전,1661-0970,34.8605747,128.4282639,2019-08-22,5330000,경상남도 통영시,
금호통영마리나리조트,마리나요트클럽앞주차장,경상남도,연중무휴,09:00,24:00,N,Y,,0,1,N,경상남도 통영시 큰발개 1길 33,경상남도 통영시 도남동 645,환경부,1661-0970,34.8272833083,128.438620072,2019-08-22,5330000,경상남도 통영시,
통영비즈니스관광호텔,주차장,경상남도,연중무휴,09:00,24:00,Y,N,,2,0,N,경상남도 통영시 통영해안로 575,경상남도 통영시 무전동 55-1,환경부,1661-0970,34.8563072,128.4396077,2019-08-22,5330000,경상남도 통영시,
구파발역환승주차장,지하주차장1층 20구역,서울특별시,연중무휴,00:00,00:00,N,Y,AC3상+DC차데모,0,1,Y,서울특별시 은평구 진관2로 15-40,서울특별시 은평구 진관동 70-1,환경부(한국자동차환경협회),1661-9408,37.6387630000,126.9189440000,2019-03-31,3110000,서울특별시 은평구,
이마트은평점,지하주차장4층 A구역,서울특별시,"매월 둘째, 넷째주 일요일",10:00,00:00,N,Y,AC3상+DC차데모,0,1,Y,서울특별시 은평구 은평로 111,서울특별시 은평구 응암동 90-1,환경부(한국자동차환경협회),1661-9408,37.6003060000,126.9201130000,2019-03-31,3110000,서울특별시 은평구,
은평구민체육센터,주차장 내부,서울특별시,연중무휴,00:00,00:00,N,Y,AC3상+DC차데모+DC콤보,0,1,Y,서울특별시 은평구 진관1로 40,서울특별시 은평구 진관동 362,환경부(한국자동차환경협회),1661-9408,37.6306750000,126.9233060000,2019-03-31,3110000,서울특별시 은평구,
현대자동차수색대리점,주차장 내부,서울특별시,연중무휴,00:00,00:00,N,Y,AC3상+DC차데모+DC콤보,0,1,N,서울특별시 은평구 수색로 342-1,서울특별시 은평구 수색동 315-2,환경부(한국자동차환경협회),1661-9408,37.5866030000,126.8880380000,2019-03-31,3110000,서울특별시 은평구,
한국전력서대문은평지사,주차장 내부,서울특별시,"연중무휴(주중08~20시, 주말09~18시 운영)",08:00,20:00,N,Y,AC3상+DC차데모+DC콤보,0,1,N,서울특별시 은평구 통일로 659,서울특별시 은평구 녹번동 28-62,한국전력,02-350-2264,37.6053690000,126.9336830000,2019-03-31,3110000,서울특별시 은평구,
서울특별시은평병원,주차장 내부,서울특별시,연중무휴,00:00,00:00,N,Y,AC3상+DC차데모+DC콤보,0,1,Y,서울특별시 은평구 백련산로 90,서울특별시 은평구 응암동 232-3,한국전력,02-300-8016,37.5983650000,126.9373500000,2019-03-31,3110000,서울특별시 은평구,
은평평화공원공영주차장,주차장 내부,서울특별시,연중무휴,00:00,00:00,N,Y,AC3상+DC차데모+DC콤보,0,2,Y,서울특별시 은평구 서오릉로 47,서울특별시 은평구 녹번동 153-1,한국전력,02-350-5183,37.6056780000,126.9230440000,2019-03-31,3110000,서울특별시 은평구,
응암3동공영주차장,주차장 내부,서울특별시,연중무휴,00:00,00:00,N,Y,AC3상+DC차데모+DC콤보,0,1,Y,서울특별시 은평구 불광천길 436,서울특별시 은평구 응암동 580-4,한국전력,02-350-2245,37.5934250000,126.9153500000,2019-03-31,3110000,서울특별시 은평구,
롯데슈퍼 은평점,주차장 내부,서울특별시,"매월 둘째, 넷째주 일요일",00:00,00:00,N,Y,AC3상+DC차데모+DC콤보,0,1,Y,서울특별시 은평구 진관2로 117,서울특별시 은평구 진관동 90-1,한국전기차충전서비스,1522-1782,37.6343239400,126.9304657900,2019-03-31,3110000,서울특별시 은평구,
서울시 은평소방서,주차장 내부,서울특별시,연중무휴,00:00,00:00,Y,N,AC완속,1,0,N,서울특별시 은평구 통일로 962,서울특별시 은평구 진관동 120,포스코ICT,1600-4047,37.6285796900,126.9197276400,2019-03-31,3110000,서울특별시 은평구,
서울시 연광초등학교 지하 공동주차장,주차장 내부,서울특별시,연중무휴,00:00,00:00,Y,N,AC완속,1,0,Y,서울특별시 은평구 연서로 347,서울특별시 은평구 불광동 73-1,포스코ICT,1600-4047,37.6261898300,126.9288477300,2019-03-31,3110000,서울특별시 은평구,
서울시 연신중학교 지하 공동주차장,주차장 내부,서울특별시,연중무휴,00:00,00:00,Y,N,AC완속,1,0,Y,서울특별시 은평구 연서로33길 16-32,서울특별시 은평구 불광동 400-4,포스코ICT,1600-4047,37.6230152300,126.9248421200,2019-03-31,3110000,서울특별시 은평구,
현대자동차 블루핸즈 녹번서부점,주차장 내부(현대차 이외 고객 이용 불가),서울특별시,연중무휴,09:00,18:00,Y,N,AC완속,1,0,Y,서울특별시 은평구 통일로 661,서울특별시 은평구 녹번동 28-71,현대자동차,,37.6055691800,126.9338149200,2019-03-31,3110000,서울특별시 은평구,
은평구청,주차장,서울특별시,연중무휴,00:00,00:00,N,Y,AC3상+DC차데모+DC콤보,0,1,N,서울특별시 은평구 은평로 195,서울특별시 은평구 녹번동 84,환경부(한국자동차환경협회),02-351-6155,37.6021755627,126.9293379035,2019-03-31,3110000,서울특별시 은평구,
서북병원,주차장,서울특별시,연중무휴,00:00,00:00,N,Y,AC3상+DC차데모+DC콤보,0,1,N,서울특별시 은평구 갈현로7길 49,서울특별시 은평구 역촌동 산31-1,환경부(한국자동차환경협회),02-3156-3000,37.6046197196,126.9053566093,2019-03-31,3110000,서울특별시 은평구,
서울소방학교,주차장,서울특별시,연중무휴,00:00,00:00,Y,N,AC완속,1,0,Y,서울특별시 은평구 통일로 1031-21,서울특별시 은평구 진관동 110-26,한국전력,02-2106-3612,37.6342164635,126.9144630046,2019-03-31,3110000,서울특별시 은평구,
아이파크포레스트게이트,주차장,서울특별시,연중무휴,00:00,00:00,N,Y,AC완속,4,0,Y,서울특별시 은평구 통일로 1010,서울특별시 은평구 진관동 100-3,한국전력,02-389-7334,37.6328792955,126.9183146017,2019-03-31,3110000,서울특별시 은평구,
정읍시청,시청 후문 주차장,전라북도,연중무휴,00:00,23:59,N,Y,AC3상 7핀+DC차데모 10핀+DC콤보 7핀,,1,N,전라북도 정읍시 충정로 234,전라북도 정읍시 수성동 440-1,환경부(한국자동차환경협회),1661-9408,35.5700179,126.8563768,2019-09-17,4690000,전라북도 정읍시,
칠보면사무소,칠보면 주차장,전라북도,연중무휴,00:00,23:59,N,Y,AC3상 7핀+DC차데모 10핀+DC콤보 7핀,,1,N,전라북도 정읍시 칠보중앙로 68,전라북도 정읍시 칠보면 시산리 587-3,환경부(한국자동차환경협회),1661-9408,35.6027166,126.9933443,2019-09-17,4690000,전라북도 정읍시,
"정읍휴게소(상,하)",정읍휴게소 주차장,전라북도,연중무휴,00:00,23:59,N,Y,AC3상 7핀+DC차데모 10핀+DC콤보 7핀,,2,N,전라북도 정읍시 북면 정신로 135-61,"전라북도 정읍시 북면 남산리 산19-1, 산20-17",환경부(한국자동차환경협회),1661-9408,35.6015047,126.8618299,2019-09-17,4690000,전라북도 정읍시,
한국전력공사(정읍지점),한국전력공사 주차장,전라북도,연중무휴,00:00,23:59,N,Y,AC3상 7핀+DC차데모 10핀+DC콤보 7핀,,1,N,전라북도 정읍시 서부로 5,전라북도 정읍시 연지동 252-26,한국전력공사,1899-2100,35.5691536,126.8436246,2019-09-17,4690000,전라북도 정읍시,
시기공영주차장,시기공영주차장,전라북도,연중무휴,00:00,23:59,N,Y,AC3상 7핀+DC차데모 10핀+DC콤보 7핀,,1,Y,전라북도 정읍시 조곡천2길 12,전라북도 정읍시 시기동 364,전라북도 정읍시청,063-539-5702,35.5656596,126.8559501,2019-09-17,4690000,전라북도 정읍시,
수성공영주차장,수성공영주차장,전라북도,연중무휴,00:00,23:59,N,Y,AC3상 7핀+DC차데모 10핀+DC콤보 7핀,,1,Y,,전라북도 정읍시 수성동 524-20,전라북도 정읍시청,063-539-5702,35.5696856,126.8506242,2019-09-17,4690000,전라북도 정읍시,
내장산국립공원1주차장,제1주차장,전라북도,연중무휴,00:00,23:59,N,Y,AC3상 7핀+DC차데모 10핀+DC콤보 7핀,,2,Y,,전라북도 정읍시 내장동 52,환경부(한국자동차환경협회),1661-9408,35.4940621,126.925604,2019-09-17,4690000,전라북도 정읍시,
내장산국립공원 네이처센터,네이처센터 주차장,전라북도,연중무휴,00:00,23:59,N,Y,AC3상 7핀+DC차데모 10핀+DC콤보 7핀,,2,Y,,전라북도 정읍시 내장동 169-1,환경부(한국자동차환경협회),1661-9408,35.50797248,126.9068303,2019-09-17,4690000,전라북도 정읍시,
태인면사무소,태인면 주차장,전라북도,연중무휴,00:00,23:59,N,Y,AC3상 7핀+DC차데모 10핀+DC콤보 7핀,,1,N,전라북도 정읍시 태인면 정읍북로 1193,전라북도 정읍시 태인면 태창리 425,한국전력공사,1899-2100,35.6505634,126.9323335,2019-09-17,4690000,전라북도 정읍시,
롯데마트 정읍점,롯데마트 정읍점,전라북도,연중무휴,00:00,23:59,N,Y,AC3상 7핀+DC차데모 10핀+DC콤보 7핀,,1,N,전라북도 정읍시 벚꽃로 85,전라북도 정읍시 농소동 446-1,한국전기차충전서비스,1522-1782,35.579284,126.839837,2019-09-17,4690000,전라북도 정읍시,
정읍역,정읍역 주차장,전라북도,연중무휴,00:00,23:59,N,Y,AC3상 7핀+DC차데모 10핀+DC콤보 7핀,,2,Y,전라북도 정읍시 서부산업도로 305,전라북도 정읍시 연지동 343-1,한국전력공사,1899-2100,35.5753546,126.8427753,2019-09-17,4690000,전라북도 정읍시,
계룡시청주차장,계룡시청 주차장,충청남도,없음,09:00,18:00,Y,N,N,1,,N,충청남도 계룡시 장안로 46,충청남도 계룡시 금암동 9,효성,02-707-6535,36.2742292,127.2488270,2019-06-05,5580000,충청남도 계룡시,
달성군청,문화복지동 주차장,대구광역시,연중무휴,00:00,23:59,Y,Y,,1,1,N,대구광역시 달성군 논공읍 달성군청로 33,대구광역시 달성군 논공읍 금포리 1313,대구광역시 달성군청,,35.7745414,128.4313244,2019-09-10,3480000,대구광역시 달성군,
달성군청,외부주차장,대구광역시,공휴일,00:00,23:59,Y,N,,1,,N,대구광역시 달성군 논공읍 달성군청로 33,대구광역시 달성군 논공읍 금포리 1313,대구광역시 달성군청,,35.7745414,128.4313244,2019-09-10,3480000,대구광역시 달성군,
함평나비휴게소(광주방향),전라남도 함평군 엄다면 무안광주고속도로 12,전라남도,연중무휴,00:00,00:00,N,Y,"DC차데모, AC3상, DC콤보",,2,N,전라남도 함평군 엄다면 무안광주고속도로 12,전라남도 함평군 엄다면,환경부,1661-9408,35.03773941,126.5124422,2019-09-24,4960000,전라남도 함평군,
함평엑스포공원,전라남도 함평군 함평읍 곤재로 27,전라남도,연중무휴,00:00,00:00,N,Y,"DC차데모, AC3상, DC콤보",,1,N,전라남도 함평군 함평읍 곤재로 27,전라남도 함평군 함평읍,환경부,1661-9408,35.0561896437,126.5199487210,2019-09-24,4960000,전라남도 함평군,
황소주차장(함평엑스포공원),전라남도 함평군 함평읍 내교리 828-56,전라남도,연중무휴,00:00,00:00,N,Y,DC콤보,,2,N,전라남도 함평군 함평읍 곤재로 27,전라남도 함평군 함평읍,환경부,1661-9408,35.0561896437,126.5199487210,2019-09-24,4960000,전라남도 함평군,
함평천지휴게소(목포방향),전라남도 함평군 함평읍 서해안고속도로 31,전라남도,연중무휴,00:00,00:00,N,Y,"DC차데모, AC3상, DC콤보",,2,N,전라남도 함평군 함평읍 서해안고속도로 31,전라남도 함평군 함평읍,환경부,1661-9408,35.06913302,126.4780059,2019-09-24,4960000,전라남도 함평군,
함평천지휴게소(시흥방향),전라남도 함평군 함평읍 서해안고속도로 31,전라남도,연중무휴,00:00,00:00,N,Y,"DC차데모, AC3상, DC콤보",,2,N,전라남도 함평군 함평읍 서해안고속도로 31,전라남도 함평군 함평읍,환경부,1661-9408,35.06913302,126.4780059,2019-09-24,4960000,전라남도 함평군,
함평읍사무소,전라남도 함평군 함평읍 중앙길 132,전라남도,연중무휴,00:00,00:00,Y,N,Ac완속,1,,N,전라남도 함평군 함평읍 중앙길 132,전라남도 함평군,에버온,1661-7766,35.06550698,126.5201617,2019-09-24,4960000,전라남도 함평군,
함평지사,전라남도 함평군 함평읍 서부길 41-14,전라남도,연중무휴,06:00,23:00,N,Y,"DC차데모, AC3상, DC콤보",,1,N,전라남도 함평군 함평읍 서부길 41-14,전라남도 함평군 함평읍,한국전력,061-320-0239,35.0602712514,126.5181884126,2019-09-24,4960000,전라남도 함평군,
영광소방서함평119안전센타,전라남도 함평군 대동면 학동로 386 지상주차장,전라남도,연중무휴,00:00,00:00,Y,N,AC완속,2,,N,전라남도 함평군 대동면 학동로 386,전라남도 함평군 대동면,지인텔,1544-4279,35.06054314,126.5389801,2019-09-24,4960000,전라남도 함평군,
국민체육센터 공공급속충전소,충청북도 괴산군 괴산읍 서부리654,충청북도,-,00:00,23:59,N,Y,-,0,1,N,충청북도 괴산군 괴산읍 임꺽정로113,,한국환경공단,032-590-3678,36.8146933011,127.783476018,2019-06-21,4460000,충청북도 괴산군,
푸른내문화센터 공공급속충전소,충청북도 괴산군 청천면 금관로473,충청북도,-,00:00,23:59,N,Y,-,0,1,N,충청북도 괴산군 청천면 금관로473,,한국환경공단,032-590-3678,36.6585652,127.7388582,2019-06-21,4460000,충청북도 괴산군,
칠성면사무소 공공급속충전소,충청북도 괴산군 칠성면 도정로 61,충청북도,-,00:00,23:59,N,Y,-,0,1,N,충청북도 괴산군 칠성면 도정로 61,,한국전력공사,,36.7879437,127.8638452,2019-06-21,4460000,충청북도 괴산군,
괴산휴게소 공공급속충전소,충청북도 괴산군 장연면 중부내륙고속도로 205(마산방향),충청북도,-,00:00,23:59,N,Y,-,0,1,N,충청북도 괴산군 장연면 중부내륙고속도로 205(마산방향),,환경부,1661-9408,36.8313365,127.9578400,2019-06-21,4460000,충청북도 괴산군,
괴산휴게소 공공급속충전소,충청북도 괴산군 장연면 중부내륙고속도로 204(양평방향),충청북도,-,00:00,23:59,N,Y,-,0,1,N,충청북도 괴산군 장연면 중부내륙고속도로 204(양평방향),,환경부,1661-9408,36.8317809,127.9601453,2019-06-21,4460000,충청북도 괴산군,
연풍면사무소 공공급속충전소,충청북도 괴산군 연풍면 향교로 71,충청북도,-,00:00,23:59,N,Y,-,0,1,N,충청북도 괴산군 연풍면 향교로 71,,자동차환경협회,02-3473-1221,36.7665985064,128.0009509025,2019-06-21,4460000,충청북도 괴산군,
장연면사무소 공공급속충전소,충청북도 괴산군 장연면 미선로 오가 5길7,충청북도,-,00:00,23:59,N,Y,-,0,1,N,충청북도 괴산군 장연면 미선로 오가 5길7,,자동차환경협회,02-3473-1221,36.8241330,127.9554516,2019-06-21,4460000,충청북도 괴산군,
청안면사무소 공공급속충전소,충청북도 괴산군 청안면 청안읍내로 2길 7,충청북도,-,00:00,23:59,N,Y,-,0,1,N,충청북도 괴산군 청안면 청안읍내로 2길 7,,자동차환경협회,02-3473-1221,36.7719849,127.6398188,2019-06-21,4460000,충청북도 괴산군,
불정면사무소 공공급속충전소,충청북도 괴산군 불정면 목도로 2길 11,충청북도,-,00:00,23:59,N,Y,-,0,1,N,충청북도 괴산군 불정면 목도로 2길 11,,자동차환경협회,02-3473-1221,36.8711806631,127.854058215,2019-06-21,4460000,충청북도 괴산군,
망미동 공영주차장,망미동 979-73,부산광역시,연중무휴,00:00,00:00,N,Y,"DC차데모, AC3상, DC콤보",0,1,Y,부산광역시 수영구 금련로 43번길 17,부산광역시 수영구 망미동 979-73,환경부(한국자동차환경협회),02-3473-1221,35.1703149613,129.096868,2019-11-18,3380000,부산광역시 수영구,
민락동 매립지 공영주차장,민락동113-46,부산광역시,연중무휴,00:00,00:00,N,Y,"DC차데모, AC4상, DC콤보",0,1,Y,부산광역시 수영구 민락수변로 17번길 60,부산광역시 수영구 민락동 113-46,한국전력,02-1899-2100,35.154880687,129.127174614,2019-11-18,3380000,부산광역시 수영구,
수변공원,민락수변로 95,부산광역시,연중무휴,00:00,00:00,N,Y,"DC차데모, AC5상, DC콤보",0,1,Y,부산광역시 수영구 민락수변로 95,부산광역시 수영구 민락동 110-27,환경부(한국자동차환경협회),02-1661-9408,35.1547365375,129.131068274,2019-11-18,3380000,부산광역시 수영구,
포항시청 ①,내부주차장,경상북도,연중무휴,00:01,23:59,N,Y,DC차 데모 +AC3상,0,1,Y,경상북도 포항시 남구 시청로1 포항시청,경상북도 포항시 남구 대잠동 1001,한국자동차환경협회,1661-9408,36.01871528,129.3438528,2019-07-31,5020000,경상북도 포항시,
포항시청 ②,내부주차장,경상북도,연중무휴,00:01,23:59,N,Y,DC차데모+AC3상+DC콤보,0,1,Y,경상북도 포항시 남구 시청로1 포항시청,경상북도 포항시 남구 대잠동 1001,한국전력공사,1899-2100,36.01871528,129.3438528,2019-07-31,5020000,경상북도 포항시,
흥해읍사무소,외부주차장,경상북도,연중무휴,00:01,23:59,N,Y,DC차데모+AC3상+DC콤보,0,1,N,경상북도 포항시 북구 흥해읍 동해대로 1511,경상북도 포항시 북구 흥해읍 옥성리 177-5,한국자동차환경협회,1661-9408,36.10712969,129.3417259,2019-07-31,5020000,경상북도 포항시,
포은중앙도서관,외부주차장,경상북도,연중무휴,00:01,23:59,N,Y,DC차 데모,0,1,Y,경상북도 포항시 북구 삼호로 31,경상북도 포항시  북구  덕수동 35-19,한국자동차환경협회,1661-9408,36.04390913,129.3675824,2019-07-31,5020000,경상북도 포항시,
이마트포항점,외부주차장 3층,경상북도,"2, 4째주 일요일",10:00,23:59,N,Y,DC차데모+AC3상+DC콤보,0,1,N,경상북도 포항시 남구 냉천로 10,경상북도 포항시 남구 인덕동 161-176,한국자동차환경협회,1661-9408,35.99247451,129.3976279,2019-07-31,5020000,경상북도 포항시,
영일대1주차장,외부주차장,경상북도,연중무휴,00:01,23:59,N,Y,DC차데모+AC3상+DC콤보,0,1,N,경상북도 포항시 북구 해안로 82,경상북도 포항시 북구 두호동 724,한국자동차환경협회,1661-9408,36.056058,129.378003,2019-07-31,5020000,경상북도 포항시,
남구청,외부주차장,경상북도,연중무휴,00:01,23:59,N,Y,DC차데모+AC3상+DC콤보,0,1,N,경상북도 포항시 남구 희망대로 790,경상북도 포항시 남구 대도동 381-4,한국자동차환경협회,1661-9408,36.007796,129.3593239,2019-07-31,5020000,경상북도 포항시,
현대자동차포항서비스센터,외부주차장,경상북도,연중무휴,00:01,23:59,Y,Y,DC차데모+DC콤보(현대자동차에 한함),2,1,N,경상북도 포항시 남구 연일읍 동문로 102,경상북도 포항시 남구 연일읍 오천리 163-1,현대자동차,080-600-6000,35.99927974,129.353913,2019-07-31,5020000,경상북도 포항시,
한국전력공사포항지사구룡포서비스센터,외부주차장,경상북도,"주중,주말",06:00,23:00,N,Y,DC차데모+AC3상+DC콤보,0,1,N,경상북도 포항시 남구 구룡포길101번길5-2,경상북도 포항시 남구 구룡포읍 구룡포리 466-1,한국전력공사,1899-2100,35.99253148,129.556231,2019-07-31,5020000,경상북도 포항시,
포항시청소년수련관,외부주차장,경상북도,연중무휴,00:01,23:59,N,Y,DC차데모+AC3상+DC콤보,0,1,N,경상북도 포항시 북구 삼호로 533,경상북도 포항시 북구 환호동 185,한국자동차환경협회,1661-9408,36.07541151,129.3960246,2019-07-31,5020000,경상북도 포항시,
기아자동차포항서비스센터,외부주차장,경상북도,평일,08:30,17:30,Y,Y,DC차데모+DC콤보(기아자동차에 한함),1,1,N,경상북도 포항시 북구 중앙로 185,경상북도 포항시 북구 죽도동 57-3,기아자동차,080-200-2000,36.02964285,129.3663965,2019-07-31,5020000,경상북도 포항시,
한국전력공사포항지사,외부주차장,경상북도,"주중,주말",06:00,23:00,N,Y,DC차데모+AC3상+DC콤보,0,1,N,경상북도 포항시 남구 희망대로 677,경상북도 포항시 남구 상도동 592,한국전력공사,1899-2100,36.010721,129.3468505,2019-07-31,5020000,경상북도 포항시,
한국전력공사북포항지사,외부주차장,경상북도,"주중,주말",06:00,23:00,N,Y,DC차데모+AC3상+DC콤보,0,1,N,경상북도 포항시 북구 흥해읍 흥해로 100,경상북도 포항시 북구 흥해읍 약성리 121-2,한국전력공사,1899-2100,36.113712,129.3475814,2019-07-31,5020000,경상북도 포항시,
포항문화원,외부주차장,경상북도,연중무휴,00:01,23:59,N,Y,DC차데모+AC3상+DC콤보,0,1,N,경상북도 포항시 북구 새천년대로 909(우현동),경상북도 포항시 북구 새천년대로 909(우현동),한국전력공사,1899-2101,36.053382,129.3605209,2019-07-31,5020000,경상북도 포항시,
연일읍사무소,외부주차장,경상북도,연중무휴,00:01,23:59,N,Y,DC차데모+AC3상+DC콤보,0,1,N,경상북도 포항시 남구 연일읍 철강로 10,경상북도 포항시 남구 연일읍 철강로 10,한국전력공사,1899-2102,35.9917095,129.3437228,2019-07-31,5020000,경상북도 포항시,
양덕한마음체육관,외부주차장,경상북도,연중무휴,00:01,23:59,N,Y,DC차데모+AC3상+DC콤보,0,1,N,경상북도 포항시 북구 새천년대로 1460번길(양덕동),경상북도 포항시 북구 새천년대로 1460번길(양덕동),한국전력공사,1899-2103,36.041824,129.365649,2019-07-31,5020000,경상북도 포항시,
포항철강관리공단,외부주차장,경상북도,연중무휴,00:01,23:59,N,Y,DC차데모+AC3상+DC콤보(1)+DC콤보(2),0,3,N,경상북도 포항시 남구 철강로 362(호동),경상북도 포항시 남구 철강로 362(호동),한국자동차환경협회,1661-9408,35.97822785,129.3791816,2019-07-31,5020000,경상북도 포항시,
기계면사무소,외부주차장,경상북도,연중무휴,00:01,23:59,N,Y,DC차데모+AC3상+DC콤보(1)+DC콤보(2),0,3,N,경상북도 포항시 북구 기계면 근면길 14,경상북도 포항시 북구 기계면 근면길 14,한국자동차환경협회,1661-9408,36.0720197,129.209888,2019-07-31,5020000,경상북도 포항시,
구룡포읍사무소,외부주차장,경상북도,연중무휴,00:01,23:59,N,Y,DC차데모+AC3상+DC콤보(1)+DC콤보(2),0,3,N,경상북도 포항시 남구 구룡포읍 호미로 133,경상북도 포항시 남구 구룡포읍 호미로 133,한국자동차환경협회,1661-9408,35.985065,129.546103,2019-07-31,5020000,경상북도 포항시,
대송다목적복지회관,외부주차장,경상북도,연중무휴,00:01,23:59,N,Y,DC차데모+AC3상+DC콤보(1)+DC콤보(2),0,3,N,경상북도 포항시 남구 대송면 운제로 111,경상북도 포항시 남구 대송면 운제로 111,한국자동차환경협회,1661-9408,35.97833233,129.3622292,2019-07-31,5020000,경상북도 포항시,
양덕하나로마트,외부주차장,경상북도,연중무휴,00:01,23:59,N,Y,DC차데모+AC3상+DC콤보,0,1,N,경상북도 포항시 북구 장량로 171(양덕동),경상북도 포항시 북구 장량로 171(양덕동),한국전력공사,1899-2100,36.08216743,129.3984362,2019-07-31,5020000,경상북도 포항시,
홈플러스포항점,외부주차장,경상북도,연중무휴,10:00,23:59,N,Y,DC차데모+AC3상+DC콤보,0,1,N,경상북도 포항시 남구 중흥로 77(상도동),경상북도 포항시 남구 중흥로 77(상도동),한국전력공사,1899-2100,36.01274153,129.3489235,2019-07-31,5020000,경상북도 포항시,
롯데마트 포항지점,내부주차장,경상북도,연중무휴,10:00,23:00,N,Y,DC차데모+AC3상+DC콤보,0,1,N,경상북도 포항시 남구 지곡로 237(지곡동),경상북도 포항시 남구 지곡로 237(지곡동),한국자동차환경협회,1661-9408,36.02719446,129.3248441,2019-07-31,5020000,경상북도 포항시,
애지중지카페,외부주차장,경상북도,연중무휴,00:01,23:59,N,Y,DC차데모+AC3상+DC콤보,0,1,N,경상북도 포항시 남구 장기면 동해안로 2987,경상북도 포항시 남구 장기면 동해안로 2987,한국자동차환경협회,1661-9408,35.862552,129.525009,2019-07-31,5020000,경상북도 포항시,
포항공과대학 포스빌6동주차장,외부주차장,경상북도,연중무휴,00:01,23:59,N,Y,DC차데모+AC3상+DC콤보,0,1,N,경상북도 포항시 남구 지곡로 83(지곡동),경상북도 포항시 남구 지곡로 83(지곡동),한국자동차환경협회,1661-9408,36.014028,129.324935,2019-07-31,5020000,경상북도 포항시,
포항공항,외부주차장,경상북도,연중무휴,00:01,23:59,N,Y,DC차데모+AC3상+DC콤보,0,1,N,경상북도 포항시 남구 동해면 일월로 18,경상북도 포항시 남구 동해면 일월로 18,한국자동차환경협회,1661-9408,35.98411499,129.4340373,2019-07-31,5020000,경상북도 포항시,
선린대학교,외부주차장,경상북도,연중무휴,00:01,23:59,N,Y,DC차데모+AC3상+DC콤보,0,1,N,경상북도 포항시 북구 흥해읍 초곡길 36번길30,경상북도 포항시 북구 흥해읍 초곡길 36번길30,한국자동차환경협회,1661-9408,36.09078367,129.3331548,2019-07-31,5020000,경상북도 포항시,
GS슈퍼마켓포항창포점,외부주차장,경상북도,연중무휴,00:01,23:59,N,Y,DC차데모+AC3상+DC콤보,0,1,N,경상북도 포항시 북구 새천년대로 1076번길 4(두호동),경상북도 포항시 북구 새천년대로 1076번길 4(두호동),대영채비,1522-2573,36.063717,129.371843,2019-07-31,5020000,경상북도 포항시,
오션힐스포항컨트리클럽(동해리조트주차장),외부주차장,경상북도,연중무휴,00:01,23:59,N,Y,DC차데모+AC3상+DC콤보,0,1,N,경상북도 포항시 북구 송라면 대전길 7-1,,대영채비,1522-2573,36.243753,129.359041,2019-07-31,5020000,경상북도 포항시,
아트센터 고마,아트센터 고마 내 주차장 입구 부근,충청남도,무,00:00,23:59,N,Y,"DC차데모, AC3상,DC 콤보",0,1,N,충청남도 공주시 고마나루길 90,충청남도 공주시 웅진동 347,한국자동차환경협회,1661-9408,36.4665898889,127.1075716174,2019-09-25,4500000,충청남도 공주시,
송파구청,지상주차장,서울특별시,없음,00:00,24:00,N,Y,DC차데모+AC3상+DC콤보,0,1,Y,서울특별시 송파구 올림픽로 326,서울특별시 송파구 신천동 29-5,서울특별시 송파구청,02-2147-2131,37.5146098,127.1061641,2019-05-31,3230000,서울특별시 송파구,
롯데마트 잠실점,지하주차장 1층 M148구역,서울특별시,"매월2,4주일요일",10:00,23:00,Y,Y,DC차데모+AC3상,1,2,Y,서울특별시 송파구 올림픽로 240,서울특별시 송파구 잠실동 40-1,전기자동차 헬프데스크,1661-9408,37.511267,127.0980274,2019-05-31,3230000,서울특별시 송파구,
복정역 공영주차장,외부주차장,서울특별시,없음,00:00,24:00,N,Y,DC차데모+AC3상,0,1,Y,서울특별시 송파구 장지동,서울특별시 송파구 장지동 600-2,전기자동차 헬프데스크,1661-9408,37.469749,127.126622,2019-05-31,3230000,서울특별시 송파구,
마천동1공영주차장,외부주차장,서울특별시,없음,00:00,24:00,N,Y,DC차데모+AC3상+DC콤보,0,1,Y,서울특별시 송파구 성내천로43길 6,서울특별시 송파구 마천동 215,한전강동송파지사,02-480-2275,37.4952716,127.155500,2019-05-31,3230000,서울특별시 송파구,
가락시장,농수산물도매시장 지하주차장,서울특별시,없음,00:00,24:00,N,Y,DC차데모+AC3상+DC콤보,0,3,Y,서울특별시 송파구 양재대로 932,서울특별시 송파구 가락동 600,한전강동송파지사,02-480-2275,37.4964665230,127.1134551899,2019-05-31,3230000,서울특별시 송파구,
서울시 농수산식품공사 친환경농산물 집배송센터,친환경농산물집배송센터 지상주차장,서울특별시,없음,00:00,24:00,Y,N,AC완속,1,0,Y,서울특별시 송파구 양재대로 932,서울특별시 송파구 가락동 600,포스코ICT,02-3435-0338,37.4964665230,127.1134551899,2019-05-31,3230000,서울특별시 송파구,
서울시 농수산식품공사 가락몰 판매동,가락몰관리업무동 지하3층 S13,서울특별시,없음,00:00,24:00,Y,N,AC완속,3,0,Y,서울특별시 송파구 양재대로 932,서울특별시 송파구 가락동 600,포스코ICT,02-3435-0338,37.4964665230,127.1134551899,2019-05-31,3230000,서울특별시 송파구,
서울시 농수산식품공사 가락몰 관리업무동,가락몰판매동 지하3층 I07,서울특별시,없음,00:00,24:00,Y,N,AC완속,3,0,Y,서울특별시 송파구 양재대로 932,서울특별시 송파구 가락동 600,포스코ICT,02-3435-0338,37.4964665230,127.1134551899,2019-05-31,3230000,서울특별시 송파구,
서울시 대명레저산업 본사,지하3층 주차장 3A 구역,서울특별시,없음,00:00,24:00,Y,N,AC완속,2,0,Y,서울특별시 송파구 법원로 135,서울특별시 송파구 문정동 641-3 대명타워,포스코ICT,02-3435-0338,37.4870560,127.1183074,2019-05-31,3230000,서울특별시 송파구,
롯데마트 송파점,지하4층 C8,서울특별시,"매월2,4주일요일",10:00,23:00,N,Y,DC차데모+AC3상+DC콤보,0,1,Y,서울특별시 송파구 중대로 80,서울특별시 송파구 문정동 150-2 문정프라자,환경부,1661-9408,37.491710,127.1178672,2019-05-31,3230000,서울특별시 송파구,
아시아공원 공영주차장,외부주차장,서울특별시,없음,00:00,24:00,N,Y,DC차데모+AC3상+DC콤보,0,3,Y,서울특별시 송파구 잠실동 84,서울특별시 송파구 잠실동 84 아시아공원,환경부,1661-9408,37.510510,127.076340,2019-05-31,3230000,서울특별시 송파구,
방이동 공영주차장,외부주차장,서울특별시,없음,00:00,24:00,N,Y,DC차데모+AC3상+DC콤보,0,1,Y,서울특별시 송파구 백제고분로 481,서울특별시 송파구 방이동 52-1,한국전력,1899-2100,37.5135636014,127.113861116,2019-05-31,3230000,서울특별시 송파구,
롯데월드타워&몰지하주차장,"지하 주차장 2,3,4층",서울특별시,없음,00:00,24:00,Y,Y,DC차데모+AC3상+DC콤보,112,6,Y,서울특별시 송파구 올림픽로 300,서울특별시 송파구 신천동 29,롯데물산,02-3213-0251,37.513689,127.104454,2019-05-31,3230000,서울특별시 송파구,
마천동2공영주차장,외부주차장,서울특별시,없음,00:00,24:00,N,Y,DC차데모+AC3상+DC콤보,0,1,Y,서울특별시 송파구 성내천로299-7,서울특별시 송파구 마천동 364-5 마천동2공영주차장,환경부(한국자동차환경협회),1661-9408,37.4942782,127.1562452,2019-05-31,3230000,서울특별시 송파구,
거여동공영주차장,외부주차장,서울특별시,없음,00:00,24:00,N,Y,DC차데모+AC3상+DC콤보,0,1,Y,서울특별시 송파구 오금로68길8,서울특별시 송파구 거여동 33-16 거여동공영주차장,환경부(한국자동차환경협회),1661-9408,37.4922310,127.150322,2019-05-31,3230000,서울특별시 송파구,
천마공영주차장,외부주차장,서울특별시,없음,00:00,24:00,N,Y,DC차데모+AC3상+DC콤보,0,1,Y,서울특별시 송파구 성내천로33가길20,서울특별시 송파구 마천동 산1-5 천마공영주차장,환경부(한국자동차환경협회),1661-9408,37.5002470030,127.154837,2019-05-31,3230000,서울특별시 송파구,
신천유수지 공영주차장,외부주차장,서울특별시,없음,00:00,24:00,Y,Y,DC차데모+AC3상+DC콤보,1,1,Y,서울특별시 송파구 오금로 1,서울특별시 송파구 신천동 14,한국전기차충전서비스,1522-1782,37.5223926038,127.1029830143,2019-05-31,3230000,서울특별시 송파구,
잠실역 공영주차장,외부주차장,서울특별시,없음,00:00,24:00,Y,Y,DC차데모+AC3상+DC콤보,3,1,Y,서울특별시 송파구 올림픽로 300,서울특별시 송파구 신천동 29,한국전기차충전서비스,1522-1782,37.5136890,127.1044541,2019-05-31,3230000,서울특별시 송파구,
딜라이트 호텔,지상주차장,서울특별시,없음,00:00,24:00,N,Y,DC차데모+AC3상+DC콤보,0,1,Y,서울특별시 송파구 오금로11길 21-9,서울특별시 송파구 방이동 36-5 잠실딜라이트호텔,케이티,1522-4700,37.5153507,127.109254,2019-05-31,3230000,서울특별시 송파구,
스마트위례주유소,주유소출구,서울특별시,없음,00:00,24:00,N,Y,DC콤보,0,1,N,서울특별시 송파구 위례중앙로 43,서울특별시 송파구 장지동 908,GS칼텍스,02-409-5185,37.486348,127.133817,2019-05-31,3230000,서울특별시 송파구,
가든파이브주유소,주유소출구,서울특별시,없음,00:00,24:00,N,Y,DC콤보,0,1,N,서울특별시 송파구 탄천동로 740,서울특별시 송파구 장지동 875-1,GS칼텍스,02-409-5145,37.5002669,127.1089593,2019-05-31,3230000,서울특별시 송파구,
이순신순국공원,경상남도 남해군 고현면 남해대로 3829(차면리),경상남도,없음,00:00,23:59,N,Y,"DC차데모,DC콤보,AC3상",0,1,N,경상남도 남해군 고현면 남해대로 3829(차면리),경상남도 남해군 고현면 차면리 107,남해군,055-860-3253,34.9133657,127.8572682,2019-08-26,5430000,경상남도 남해군,
한전남해지사,경상남도 남해군 남해읍 남해대로 2962,경상남도,없음,00:00,23:59,N,Y,"DC차데모,DC콤보,AC3상",0,1,N,경상남도 남해군 남해읍 남해대로 2962,경상남도 남해군 남해읍 심천리 955-1,한국전력 남해지점,055-860-2236,34.85272457,127.8949935,2019-08-26,5430000,경상남도 남해군,
남해유배문학관,경상남도 남해군 남해읍 남해대로 2745,경상남도,없음,00:00,23:59,N,Y,"DC차데모,DC콤보,AC3상",0,1,N,경상남도 남해군 남해읍 남해대로 2745,경상남도 남해군 남해읍 남변리 555,한국전력 남해지점,055-860-2236,34.83195858,127.8991851,2019-08-26,5430000,경상남도 남해군,
창선대교 주차장,경상남도 남해군 창선면 동부대로2964번길 41,경상남도,없음,00:00,23:59,N,Y,"DC차데모,DC콤보,AC3상",0,1,N,경상남도 남해군 창선면 동부대로2964번길 41,경상남도 남해군 창선면 대벽리 6-25,한국전력 남해지점,055-860-2236,34.9173154,128.031929,2019-08-26,5430000,경상남도 남해군,
한려해상국립공원 노량분소,경상남도 남해군 설천면 노량리 410-36,경상남도,없음,00:00,23:59,N,Y,"DC차데모,DC콤보,AC3상",0,2,N,경상남도 남해군 설천면 노량로 206,경상남도 남해군 설천면 노량리 410-36,한려해상국립공원,,34.93959083,127.8751523,2019-08-26,5430000,경상남도 남해군,
한려해상국립공원 금산분소,경상남도 남해군 이동면 보리암로 287,경상남도,없음,00:00,23:59,N,Y,"DC차데모,DC콤보,AC3상",0,2,N,경상남도 남해군 이동면 보리암로 287,경상남도 남해군 이동면 신전리 1-8,한려해상국립공원,,34.77309683,127.9878366,2019-08-26,5430000,경상남도 남해군,
미조항 북항주차장,경상남도 남해군 미조면 미조리 107-6,경상남도,없음,00:00,23:59,N,Y,"DC차데모,DC콤보,AC3상",0,1,N,,경상남도 남해군 미조면 미조리 107-6,남해군,055-860-3254,34.71312083,128.0452427,2019-08-26,5430000,경상남도 남해군,
창선교 주차장,경상남도 남해군 삼동면 지족리 291-11,경상남도,없음,00:00,23:59,N,Y,"DC차데모,DC콤보,AC3상",0,1,N,,경상남도 남해군 삼동면 지족리 291-11,남해군,055-860-3254,34.83246483,128.0003556,2019-08-26,5430000,경상남도 남해군,
상주해수욕장 주차장,경상남도 남해군 상주면 상주리 1227,경상남도,없음,00:00,23:59,N,Y,"DC차데모,DC콤보,AC3상",0,1,N,,경상남도 남해군 상주면 상주리 1227,남해군,055-860-3254,34.72244059,127.9886081,2019-08-26,5430000,경상남도 남해군,
남해읍사무소,경상남도 남해군 남해읍 화전로 81,경상남도,없음,00:00,23:59,Y,N,,1,0,N,경상남도 남해군 남해읍 화전로 81,경상남도 남해군 남해읍 북변리 157,남해군 남해읍사무소,055-860-8003,34.83854289,127.8937074,2019-08-26,5430000,경상남도 남해군,
이동면사무소,경상남도 남해군 이동면 무림로 76,경상남도,없음,00:00,23:59,Y,N,,1,0,N,경상남도 남해군 이동면 무림로 76,경상남도 남해군 이동면 무림리 1021-1,남해군 이동면사무소,055-860-8053,34.79944908,127.9544209,2019-08-26,5430000,경상남도 남해군,
삼동면사무소,경상남도 남해군 삼동면 동부대로1876번길 12,경상남도,없음,00:00,23:59,Y,N,,2,0,N,경상남도 남해군 삼동면 동부대로1876번길 12,경상남도 남해군 삼동면 지족리 257-2,남해군 삼동면사무소,055-860-8153,34.8311154,128.0007861,2019-08-26,5430000,경상남도 남해군,
남면사무소,경상남도 남해군 남면 남서대로 778,경상남도,없음,00:00,23:59,Y,N,,1,0,N,경상남도 남해군 남면 남서대로 778,경상남도 남해군 남면 당항리 1487,남해군 남면사무소,055-860-8254,34.7712896,127.8870599,2019-08-26,5430000,경상남도 남해군,
고현면사무소,경상남도 남해군 고현면 탑동로 42,경상남도,없음,00:00,23:59,Y,N,,1,0,N,경상남도 남해군 고현면 탑동로 42,경상남도 남해군 고현면 대사리 703-6,남해군 고현면사무소,055-860-8363,34.8952963,127.8742367,2019-08-26,5430000,경상남도 남해군,
설천면사무소,경상남도 남해군 설천면 설천로 695,경상남도,없음,00:00,23:59,Y,N,,1,0,N,경상남도 남해군 설천면 설천로 695,경상남도 남해군 설천면 남양리 169-4,남해군 설천면사무소,055-860-8405,34.9248426,127.9140336,2019-08-26,5430000,경상남도 남해군,
창선면사무소,경상남도 남해군 창선면 창선로97번길 6,경상남도,없음,00:00,23:59,Y,N,,1,0,N,경상남도 남해군 창선면 창선로97번길 6,경상남도 남해군 창선면 상죽리 137-1,남해군 창선면사무소,055-860-8454,34.857709,128.0121351,2019-08-26,5430000,경상남도 남해군,
용두동 공영주차장,대전광역시 중구 동서대로 1322번길 81,대전광역시,연중무휴,00:00,24:00,N,Y,DC차데모+AC3상+DC콤보,0,2,N,대전광역시 중구 동서대로 1322번길 81,대전광역시 중구 용두동 31-2,환경부(한국자동차환경협회),1661-9408,36.3260288,127.4093433,2019-09-11,3650000,대전광역시 중구,
대사동제1공영주차장,대전광역시 중구 대사동 145-1,대전광역시,연중무휴,00:00,24:00,N,Y,DC차데모+AC3상+DC콤보,0,1,N,대전광역시 중구 보문산공원로 527,대전광역시 중구 대사동 145-1,환경부(한국자동차환경협회),1661-9408,36.3150809,127.4242304,2019-09-11,3650000,대전광역시 중구,
사정동제2노상공영주차장,대전광역시 중구 사정동 403,대전광역시,연중무휴,00:00,24:00,N,Y,DC차데모+AC3상+DC콤보,0,1,N,,대전광역시 중구 사정동 403,환경부(한국자동차환경협회),1661-9408,36.296445,127.385242,2019-09-11,3650000,대전광역시 중구,
중구청사(보건지소),대전광역시 중구 중앙로 100(대흥동),대전광역시,연중무휴,00:00,24:00,N,Y,DC차데모+AC3상+DC콤보,0,2,N,대전광역시 중구 중앙로 100(대흥동),대전광역시 중구 대흥동 499-1,환경부(한국자동차환경협회),1661-9408,36.325279,127.4213264,2019-09-11,3650000,대전광역시 중구,
오월드 내 주차장,대전광역시 중구 사정동 142  플라워랜드 주차장,대전광역시,연중무휴,00:00,24:00,N,Y,DC차데모+AC3상+DC콤보,0,1,N,대전광역시 중구 사정공원로 70,대전광역시 중구 사정동 142,환경부(한국자동차환경협회),1661-9408,36.2886107,127.3977884,2019-09-11,3650000,대전광역시 중구,
㈜농협대전유통,대전광역시 중구 대둔산로 199번길 43,대전광역시,연중무휴,00:00,24:00,N,Y,DC차데모+AC3상+DC콤보,0,1,N,대전광역시 중구 대둔산로 199번길 43,대전광역시 중구 안영동 703,한국전력,1899-2100,36.2884029,127.3778062,2019-09-11,3650000,대전광역시 중구,
한밭종합운동장 주차장,대전광역시 중구 대종로 373,대전광역시,연중무휴,00:00,24:00,N,Y,DC차데모+DC콤보,0,5,N,대전광역시 중구 대종로 373,대전광역시 중구 부사동 209-1,한국전력,1899-2100,36.3172026,127.4285703,2019-09-11,3650000,대전광역시 중구,
석교동주민센터,대전광역시 중구 석교동 12-4,대전광역시,연중무휴,00:00,24:00,N,Y,DC차데모+AC3상+DC콤보,0,1,N,대전광역시 중구 대종로 228,대전광역시 중구 석교동 12-4,환경부(한국자동차환경협회),1661-9408,36.3096812,127.4424142,2019-09-11,3650000,대전광역시 중구,
효문화진흥원,대전광역시 중구 안영동 71-2,대전광역시,연중무휴,00:00,24:00,N,Y,DC차데모+AC3상+DC콤보,0,1,N,대전광역시 중구 뿌리공원로 47,대전광역시 중구 안영동 71-2,환경부(한국자동차환경협회),1661-9408,36.2859869,127.3834148,2019-09-11,3650000,대전광역시 중구,
대전시 선병원,대전광역시 중구 목중로 29  주차장,대전광역시,연중무휴,00:00,24:00,Y,N,AC완속,1,0,N,"대전광역시 중구 목중로 29(목동, 주차장)",대전광역시 중구 목동 10-7,포스코ICT,1600-4047,36.3360016,127.4101804,2019-09-11,3650000,대전광역시 중구,
대전 중구 문화1동주민센터,대전광역시 중구 문화로 195 지상 주차장(문화1동행정복지센터),대전광역시,연중무휴,00:00,24:00,Y,N,AC완속,1,0,N,대전광역시 중구 문화로 195(지상 주차장),대전광역시 중구 문화동 284-169,지엔텔,1544-4279,36.3153167,127.406463,2019-09-11,3650000,대전광역시 중구,
부사동주민센터,대전광역시 중구 보문로68번길 20 지상 주차장(부사동 128-11),대전광역시,연중무휴,00:00,24:00,Y,N,AC완속,1,0,N,대전광역시 중구 보문로68번길 20,대전광역시 중구 부사동 128-11,지엔텔,1544-4279,36.3142319,127.4336589,2019-09-11,3650000,대전광역시 중구,
대흥동주민센터,대전광역시 중구 대흥로 109 중구문화원 3층 지상 주차장(대흥동),대전광역시,연중무휴,00:00,24:00,Y,N,AC완속,1,0,N,"대전광역시 중구 대흥로 109(대흥동, 중구문화원)",대전광역시 중구 대흥동 448,지엔텔,1544-4279,36.3233627,127.4242786,2019-09-11,3650000,대전광역시 중구,
은행선화동행정복지센터,대전광역시 중구 보문로337번길 33 지상 주차장(선화동),대전광역시,연중무휴,00:00,24:00,Y,N,AC완속,1,0,N,대전광역시 중구 보문로337번길 33,대전광역시 중구 선화동 194-1,지엔텔,1544-4279,36.3323807,127.4166636,2019-09-11,3650000,대전광역시 중구,
중촌동주민센터,대전광역시 중구 대종로 663-7 지상 주차장(중촌동),대전광역시,연중무휴,00:00,24:00,Y,N,AC완속,1,0,N,대전광역시 중구 대종로 663-7,대전광역시 중구 중촌동 102-1,지엔텔,1544-4279,36.3389046,127.4124283,2019-09-11,3650000,대전광역시 중구,
용두동행정복지센터,대전광역시 중구 동서대로1322번길 111 지상 주차장(용두동),대전광역시,연중무휴,00:00,24:00,Y,N,AC완속,1,0,N,대전광역시 중구 동서대로1322번길 111,대전광역시 중구 용두동 28-10,지엔텔,1544-4279,36.325158,127.4104002,2019-09-11,3650000,대전광역시 중구,
유천1동주민센터,대전광역시 중구 계백로1566번길 57 지상 주차장(유천1동행정복지센터),대전광역시,연중무휴,00:00,24:00,Y,N,AC완속,1,0,N,대전광역시 중구 계백로1566번길 57,대전광역시 중구 유천동 297-21,지엔텔,1544-4279,36.3149823,127.3953094,2019-09-11,3650000,대전광역시 중구,
하우스토리 2차아파트,대전광역시 중구 계룡로 900(문화동),대전광역시,연중무휴,00:00,24:00,Y,N,AC완속,2,0,N,대전광역시 중구 계룡로 901(문화동),대전광역시 중구 문화동 1-129,관리사무소,042-221-3259,36.3217573,127.4138293,2019-09-11,3650000,대전광역시 중구,
올리브힐,대전광역시 중구 목동로 70(목동),대전광역시,연중무휴,00:00,24:00,Y,Y,AC완속,3,1,N,대전광역시 중구 목동로 70(목동),대전광역시 중구 목동 362,관리사무소,042-224-0180,36.3369266,127.4071502,2019-09-11,3650000,대전광역시 중구,
센트럴자이1단지아파트,대전광역시 중구 충무로 107번길 100(대흥동),대전광역시,연중무휴,00:00,24:00,Y,Y,AC완속,3,1,N,대전광역시 중구 충무로 107번길 100(대흥동),대전광역시 중구 대흥동 912,관리사무소,042-221-3371,36.32291738,127.4258904,2019-09-11,3650000,대전광역시 중구,
버드내마을아파트,대전광역시 중구 태평로 15(태평동),대전광역시,연중무휴,00:00,24:00,Y,Y,AC완속,4,2,N,대전광역시 중구 태평로 15(태평동),대전광역시 중구 태평동 422-7,관리사무소,042-536-1270,36.3182504,127.3893205,2019-09-11,3650000,대전광역시 중구,
버느내마을아파트2단지,대전광역시 중구 태평로 35(태평동),대전광역시,연중무휴,00:00,24:00,Y,Y,AC완속,1,1,N,대전광역시 중구 태평로 35(태평동),대전광역시 중구 태평동 551,관리사무소,042-537-1300,36.3206865,127.3907326,2019-09-11,3650000,대전광역시 중구,
쎈트럴파크3단지아파트,대전광역시 중구 계백로 1716번길 87(태평동),대전광역시,연중무휴,00:00,24:00,Y,Y,AC완속,1,1,N,대전광역시 중구 계백로 1716번길 87(태평동),대전광역시 중구 문화동 1-3,관리사무소,042-224-8877,36.3185279,127.4126853,2019-09-11,3650000,대전광역시 중구,
쌍용예가아파트,대전광역시 중구 평촌로 93(태평동),대전광역시,연중무휴,00:00,24:00,Y,Y,AC완속,2,1,N,대전광역시 중구 평촌로 93(태평동),대전광역시 중구 태평동 554,관리사무소,042-537-3183,36.3235378,127.3968994,2019-09-11,3650000,대전광역시 중구,
동해문화예술회관,강원도 동해시 평원로 15,강원도,연중무휴,00:00,23:59,Y,Y,DC콤보,2,1,N,강원도 동해시 평원로 15,강원도 동해시 천곡동 809-1,환경부(한국자동차환경협회),,37.5264660,129.1152192,2019-09-11,4210000,강원도 동해시,
동해휴게소(동해방향),강원도 동해시 동해대로 6437 동해휴게소동해방향 (망상동),강원도,연중무휴,00:00,23:59,Y,Y,DC콤보,2,1,N,강원도 동해시 동해대로 6437,강원도 동해시 망상동 산5-1,환경부(한국자동차환경협회),,37.6013911,129.0735303,2019-09-11,4210000,강원도 동해시,
동해휴게소(동해방향),강원도 동해시 동해대로 6437 동해휴게소동해방향 (망상동),강원도,연중무휴,00:00,23:59,Y,Y,DC콤보,2,1,N,강원도 동해시 동해대로 6437,강원도 동해시 망상동 산5-1,환경부(한국자동차환경협회),,37.6013911,129.0735303,2019-09-11,4210000,강원도 동해시,
추암해변 신설주차장,동해러시아대게마을 옆 주차장,강원도,연중무휴,00:00,23:59,Y,Y,DC콤보,2,1,N,강원도 동해시 추암길 198,강원도 동해시 추암동 433-2,환경부(한국자동차환경협회),,37.4779132329,129.156280418,2019-09-11,4210000,강원도 동해시,
추암해변 신설주차장,동해러시아대게마을 옆 주차장,강원도,연중무휴,00:00,23:59,N,Y,DC콤보,0,1,N,강원도 동해시 추암길 198,강원도 동해시 추암동 433-2,환경부(한국자동차환경협회),,37.4779132329,129.156280418,2019-09-11,4210000,강원도 동해시,
추암해변 신설주차장,동해러시아대게마을 옆 주차장,강원도,연중무휴,00:00,23:59,N,Y,DC콤보,0,1,N,강원도 동해시 추암길 198,강원도 동해시 추암동 433-2,환경부(한국자동차환경협회),,37.4779132329,129.156280418,2019-09-11,4210000,강원도 동해시,
동해시 묵호동주민센터,강원도 동해시 논골길 78 (묵호진동 1-44),강원도,연중무휴,00:00,23:59,Y,N,,1,0,N,강원도 동해시 논골길 78,강원도 동해시 묵호진동 1-44,제주전기자동차서비스,,37.55869933,129.1142609,2019-09-11,4210000,강원도 동해시,
동해시 송정동주민센터,강원도 동해시 동해항2길 25 (송정동 854-110),강원도,연중무휴,00:00,23:59,Y,N,,1,0,N,강원도 동해시 동해항2길 25,강원도 동해시 송정동 854-110,제주전기자동차서비스,,37.4997157,129.1285580,2019-09-11,4210000,강원도 동해시,
동해지사,강원도 동해시 천곡로 23,강원도,연중무휴,00:00,23:59,Y,Y,DC콤보,2,1,N,강원도 동해시 천곡로 23,강원도 동해시 천곡동 792,한국전력,,37.5258250,129.1079838,2019-09-11,4210000,강원도 동해시,
이마트 동해점,강원도 동해시 천곡로 100,강원도,자체운영,00:00,23:59,Y,Y,DC콤보,2,1,N,강원도 동해시 천곡로 100,강원도 동해시 천곡동 831,한국전력,,37.52391917,129.1171253,2019-09-11,4210000,강원도 동해시,
동해시 동호동 주민센터,강원도 동해시 동호3길 35  주차장,강원도,연중무휴,00:00,23:59,Y,N,,1,0,N,강원도 동해시 동호3길 35,강원도 동해시 발한동 514-1,포스코ICT,,37.54580176,129.1001941,2019-09-11,4210000,강원도 동해시,
동해시 발한동 주민센터,강원도 동해시 발한로 211  주차장,강원도,연중무휴,00:00,23:59,Y,N,,1,0,N,강원도 동해시 발한로 211,강원도 동해시 발한동 239-1,포스코ICT,,37.5484595,129.1080257,2019-09-11,4210000,강원도 동해시,
동해시 북삼동 주민센터,강원도 동해시 효자남길 33-4  주차장,강원도,연중무휴,00:00,23:59,Y,N,,1,0,N,강원도 동해시 효자남길 33-4,강원도 동해시 동회동 110,포스코ICT,,37.4893755,129.1075982,2019-09-11,4210000,강원도 동해시,
동해시 북평동 주민센터,강원도 동해시 대동로 137  주차장,강원도,연중무휴,00:00,23:59,Y,N,,1,0,N,강원도 동해시 대동로 137,강원도 동해시 북평동 127-1,포스코ICT,,37.4837475,129.1250404,2019-09-11,4210000,강원도 동해시,
동해시 동해무릉건강숲,강원도 동해시 삼화로 455  주차장,강원도,연중무휴,00:00,23:59,Y,N,,1,0,N,강원도 동해시 삼화로 455,강원도 동해시 삼화동 861,포스코ICT,,37.46510525,129.0312973,2019-09-11,4210000,강원도 동해시,
동해현진관광호텔,"강원도 동해시 동굴로 125-3 (천곡동, 동해현진관광호텔)",강원도,자체운영,00:00,23:59,Y,N,,1,0,N,강원도 동해시 동굴로 125-3,강원도 동해시 천곡동 918,케이티,,37.51979599,129.1176973,2019-09-11,4210000,강원도 동해시,
동해현진관광호텔,"강원도 동해시 동굴로 125-3 (천곡동, 동해현진관광호텔)",강원도,자체운영,00:00,23:59,Y,N,,1,0,N,강원도 동해시 동굴로 125-3,강원도 동해시 천곡동 918,케이티,,37.51979599,129.1176973,2019-09-11,4210000,강원도 동해시,
동해약천온천실버타운,"강원도 동해시 석두골길 145 (망상동, 동해망상실버타운)",강원도,연중무휴,00:00,23:59,Y,N,,1,0,N,강원도 동해시 석두골길 145,강원도 동해시 망상동 459-10,케이티,,37.59415125,129.0669473,2019-09-11,4210000,강원도 동해시,
동해그랜드관광호텔,강원도 동해시 동해대로 6285,강원도,연중무휴,00:00,23:59,Y,N,,1,0,N,강원도 동해시 동해대로 6285,강원도 동해시 망상동 396-18,케이티,,37.59294507,129.0866805578,2019-09-11,4210000,강원도 동해시,
부산진구 건강증진센터,건강증진센터 지하주차장,부산광역시,연중무휴,01:00,00:00,Y,N,,1,0,Y,부산광역시 부산진구 시민공원로 30,,,051-605-6014,35.1628298528,129.053126,2019-08-10,3290000,부산광역시 부산진구,
봉화군청,봉화군청 지하차고,경상북도,연중무휴,09:00,18:00,Y,N,,1,0,N,경상북도 봉화군 봉화읍 봉화로 1111,경상북도 봉화군 봉화읍 내성리 537,경상북도 봉화군청,054-679-6402,36.8931317595,128.7326154405,2019-10-10,5240000,경상북도 봉화군,
구시장 공공급속충전소,봉화읍 구시장 공영주차장,경상북도,연중무휴,00:00,23:59,N,Y,DC차데모+AC3상+DC콤보,0,1,N,,경상북도 봉화군 봉화읍 내성리 231-30,경상북도 봉화군청,054-679-6402,36.889361,128.738906,2019-10-10,5240000,경상북도 봉화군,
국립백두대간수목원,국립백두대간수목원 춘양목 1주차장,경상북도,연중무휴,08:00,18:00,N,Y,DC콤보,0,1,N,경상북도 봉화군 춘양면 춘양로 1501,경상북도 봉화군 춘양면 서벽리 485,국립백두대간수목원,054-679-1000,37.0081302553,128.8299627835,2019-10-10,5240000,경상북도 봉화군,
감사위원회,주차장,제주특별자치도,연중무휴,00:00,23:59,Y,N,,3,0,N,제주특별자치도 서귀포시 신중로 37(법환동),,제주특별자치도,1899-8852,33.25602698,126.5095663,2019-06-30,6500000,제주특별자치도,
대륜동문화복지센터,주차장,제주특별자치도,연중무휴,00:00,23:59,N,Y,AC3상+DC차데모 +DC콤보,0,1,N,제주특별자치도 서귀포시 서호남로 10(법환동),,제주특별자치도,1899-8852,33.25017414,126.5133719,2019-06-30,6500000,제주특별자치도,
대륜동주민센터,주차장,제주특별자치도,연중무휴,00:00,23:59,Y,N,,1,0,N,제주특별자치도 서귀포시 일주동로 9185(법환동),,제주특별자치도,1899-8852,33.2481892,126.5111853,2019-06-30,6500000,제주특별자치도,
대륜동주민센터,주차장,제주특별자치도,연중무휴,00:00,23:59,N,Y,AC3상+DC차데모 +DC콤보,0,1,N,제주특별자치도 서귀포시 일주동로 9185(법환동),,환경부(한국자동차환경협회),1661-9408,33.2481892,126.5111853,2019-06-30,6500000,제주특별자치도,
서귀포소방서,주차장,제주특별자치도,연중무휴,00:00,23:59,Y,Y,AC3상+DC차데모 +DC콤보,1,2,N,제주특별자치도 서귀포시 서호남로 20(법환동),,제주특별자치도,1899-8852,33.2513091,126.5665175,2019-06-30,6500000,제주특별자치도,
서귀포시청2청사,주차장,제주특별자치도,연중무휴,00:00,23:59,Y,Y,AC3상+DC차데모 +DC콤보,7,2,N,제주특별자치도 서귀포시 신중로 55(법환동),,제주특별자치도,1899-8852,33.25557995,126.510526,2019-06-30,6500000,제주특별자치도,
월드컵경기장,주차장,제주특별자치도,연중무휴,00:00,23:59,N,Y,AC3상+DC차데모 +DC콤보,0,1,N,제주특별자치도 서귀포시 월드컵로 33,,제주특별자치도,1899-8852,33.24621974,126.5092777,2019-06-30,6500000,제주특별자치도,
치유의숲,주차장,제주특별자치도,연중무휴,00:00,23:59,Y,N,,2,0,N,제주특별자치도 서귀포시 산록남로 2271,,제주특별자치도,1899-8852,33.29193935,126.5279042,2019-06-30,6500000,제주특별자치도,
강정보건지소,주차장,제주특별자치도,연중무휴,00:00,23:59,N,Y,AC3상+DC차데모 +DC콤보,0,1,N,제주특별자치도 서귀포시 강정통물로 125-11,,제주특별자치도,1899-8852,33.2381279,126.4758905,2019-06-30,6500000,제주특별자치도,
농업기술원,주차장,제주특별자치도,연중무휴,00:00,23:59,Y,N,,3,0,N,제주특별자치도 서귀포시 중산간서로 212(강정동),,제주특별자치도,1899-8852,33.2613191,126.4890452,2019-06-30,6500000,제주특별자치도,
농업기술원,주차장,제주특별자치도,연중무휴,00:00,23:59,N,Y,AC3상+DC차데모,0,1,N,제주특별자치도 서귀포시 중산간서로 212(강정동),,환경부(한국자동차환경협회),1661-9408,33.2613191,126.4890452,2019-06-30,6500000,제주특별자치도,
대천동주민센터,주차장,제주특별자치도,연중무휴,00:00,23:59,Y,N,,1,0,N,제주특별자치도 서귀포시 도순로 44,,제주특별자치도,1899-8852,33.2507866,126.477585,2019-06-30,6500000,제주특별자치도,
대천동주민센터,주차장,제주특별자치도,연중무휴,00:00,23:59,N,Y,AC3상+DC차데모 +DC콤보,0,1,N,제주특별자치도 서귀포시 도순로 44,,한국전력,1899-2100,33.2507866,126.477585,2019-06-30,6500000,제주특별자치도,
동홍119센터,주차장,제주특별자치도,연중무휴,00:00,23:59,Y,N,,1,0,N,제주특별자치도 서귀포시 동홍로 31-7(동홍동),,제주특별자치도,1899-8852,33.25169148,126.5667351,2019-06-30,6500000,제주특별자치도,
동홍동주민센터,주차장,제주특별자치도,연중무휴,00:00,23:59,Y,N,,1,0,N,제주특별자치도 서귀포시 동홍로 104(동홍동),,제주특별자치도,1899-8852,33.2578824,126.5689267,2019-06-30,6500000,제주특별자치도,
동홍동주민센터,주차장,제주특별자치도,연중무휴,00:00,23:59,N,Y,AC3상+DC차데모 +DC콤보,0,1,N,제주특별자치도 서귀포시 동홍로 104(동홍동),,환경부(한국자동차환경협회),1661-9408,33.2578824,126.5689267,2019-06-30,6500000,제주특별자치도,
동홍주공5단지,주차장,제주특별자치도,연중무휴,00:00,23:59,N,Y,AC3상+DC차데모 +DC콤보,0,4,N,제주특별자치도 서귀포시 중산간동로 8002(동홍동),,제주특별자치도,1899-8852,33.2655963,126.5619494,2019-06-30,6500000,제주특별자치도,
서귀포시노인복지회관,주차장,제주특별자치도,연중무휴,00:00,23:59,Y,N,,1,0,N,제주특별자치도 서귀포시 태평로537번길 40-9(동홍동),,제주특별자치도,1899-8852,33.25398814,126.5706943,2019-06-30,6500000,제주특별자치도,
서귀포테니스장,주차장,제주특별자치도,연중무휴,00:00,23:59,N,Y,AC3상+DC차데모 +DC콤보,0,2,N,제주특별자치도 서귀포시 동홍로 99번길 36,,제주특별자치도,1899-8852,33.25759736,126.5642119,2019-06-30,6500000,제주특별자치도,
서귀포수협수산물직매장,주차장,제주특별자치도,연중무휴,00:00,23:59,Y,N,,1,0,N,제주특별자치도 서귀포시 칠십리로72번길 1(서귀동),,제주특별자치도,1899-8852,33.2395684,126.5644185,2019-06-30,6500000,제주특별자치도,
송산동주민센터,주차장,제주특별자치도,연중무휴,00:00,23:59,Y,N,,1,0,N,제주특별자치도 서귀포시 소암로 4(서귀동),,제주특별자치도,1899-8852,33.2450378,126.5661672,2019-06-30,6500000,제주특별자치도,
자치경찰단서귀포지역대청사,주차장,제주특별자치도,연중무휴,00:00,23:59,Y,N,,2,0,N,제주특별자치도 서귀포시 부두로 1(서귀동),,제주특별자치도,1899-8852,33.2450723,126.5658726,2019-06-30,6500000,제주특별자치도,
자치경찰단서귀포지역대청사,주차장,제주특별자치도,연중무휴,00:00,23:59,N,Y,AC3상+DC차데모 +DC콤보,0,1,N,제주특별자치도 서귀포시 부두로 1(서귀동),,환경부(한국자동차환경협회),1661-9408,33.2450723,126.5658726,2019-06-30,6500000,제주특별자치도,
정방동공영주차장,주차장,제주특별자치도,연중무휴,00:00,23:59,N,Y,AC3상+DC차데모 +DC콤보,0,2,N,제주특별자치도 서귀포시 서귀동 403-3,제주특별자치도 서귀포시 서귀동 403-3,제주특별자치도,1899-8852,33.247828,126.5631604,2019-06-30,6500000,제주특별자치도,
정방동주민센터,주차장,제주특별자치도,연중무휴,00:00,23:59,Y,N,,1,0,N,제주특별자치도 서귀포시 태평로421번길 7(서귀동),,제주특별자치도,1899-8852,33.2458588,126.5652696,2019-06-30,6500000,제주특별자치도,
걸매축구장,주차장,제주특별자치도,연중무휴,00:00,23:59,N,Y,AC3상+DC차데모 +DC콤보,0,2,N,제주특별자치도 서귀포시 서홍로 4-26(서홍동),,제주특별자치도,1899-8852,33.2493324,126.5545758,2019-06-30,6500000,제주특별자치도,
삼매봉도서관,주차장,제주특별자치도,연중무휴,00:00,23:59,Y,N,,1,0,N,제주특별자치도 서귀포시 남성중로153번길 15,,제주특별자치도,1899-8852,33.2446568,126.5517975,2019-06-30,6500000,제주특별자치도,
삼매봉도서관,주차장,제주특별자치도,연중무휴,00:00,23:59,N,Y,AC3상+DC차데모 +DC콤보,0,1,N,제주특별자치도 서귀포시 남성중로153번길 15,,환경부(한국자동차환경협회),1661-9408,33.2446568,126.5517975,2019-06-30,6500000,제주특별자치도,
서귀포보건소,주차장,제주특별자치도,연중무휴,00:00,23:59,Y,N,,8,0,N,제주특별자치도 서귀포시 중앙로101번길 52(서홍동),,제주특별자치도,1899-8852,33.2534258,126.5553625,2019-06-30,6500000,제주특별자치도,
서귀포시청 1청사,주차장,제주특별자치도,연중무휴,00:00,23:59,Y,Y,AC3상+DC차데모 +DC콤보,11,2,Y,제주특별자치도 서귀포시 중앙로 105(서홍동),,제주특별자치도,1899-8852,33.2540922,126.5601945,2019-06-30,6500000,제주특별자치도,
서귀포시청 1청사,주차장,제주특별자치도,연중무휴,00:00,23:59,N,Y,AC3상+DC차데모 +DC콤보,0,1,Y,제주특별자치도 서귀포시 중앙로 105(서홍동),,환경부(한국자동차환경협회),1661-9408,33.2540922,126.5601945,2019-06-30,6500000,제주특별자치도,
서귀포예술의전당,주차장,제주특별자치도,연중무휴,00:00,23:59,Y,Y,AC3상+DC차데모 +DC콤보,1,1,N,제주특별자치도 서귀포시 태평로 270(서홍동),,제주특별자치도,1899-8852,33.24633333,126.5507905,2019-06-30,6500000,제주특별자치도,
서귀포예술의전당,주차장,제주특별자치도,연중무휴,00:00,23:59,N,Y,AC3상+DC차데모 +DC콤보,0,1,N,제주특별자치도 서귀포시 태평로 270(서홍동),,환경부(한국자동차환경협회),1661-9408,33.24633333,126.5507905,2019-06-30,6500000,제주특별자치도,
서홍동주민센터,주차장,제주특별자치도,연중무휴,00:00,23:59,Y,N,,1,0,N,제주특별자치도 서귀포시 중앙로 125,제주특별자치도 서귀포시 서홍동 397-24,제주특별자치도,1899-8852,33.2558577,126.5602063,2019-06-30,6500000,제주특별자치도,
천지연폭포 주차장,주차장,제주특별자치도,연중무휴,00:00,23:59,Y,N,,1,0,N,제주특별자치도 서귀포시 남성중로 2-15(서홍동),,제주특별자치도,1899-8852,33.2447447,126.5597544,2019-06-30,6500000,제주특별자치도,
천지연폭포 주차장,주차장,제주특별자치도,연중무휴,00:00,23:59,N,Y,AC3상+DC차데모 +DC콤보,0,3,N,제주특별자치도 서귀포시 남성중로 2-15(서홍동),,환경부(한국자동차환경협회),1661-9408,33.2447447,126.5597544,2019-06-30,6500000,제주특별자치도,
서귀포시장애인종합사회복지관,주차장,제주특별자치도,연중무휴,00:00,23:59,N,Y,AC3상+DC차데모 +DC콤보,0,1,N,제주특별자치도 서귀포시 인정오름로 24,,제주특별자치도,1899-8852,33.2869372,126.5846411,2019-06-30,6500000,제주특별자치도,
영천동주민센터,주차장,제주특별자치도,연중무휴,00:00,23:59,Y,N,,1,0,N,제주특별자치도 서귀포시 토평로 15,,제주특별자치도,1899-8852,33.2687729,126.5867363,2019-06-30,6500000,제주특별자치도,
영천동주민센터,주차장,제주특별자치도,연중무휴,00:00,23:59,N,Y,AC3상+DC차데모 +DC콤보,0,1,N,제주특별자치도 서귀포시 토평로 15,,환경부(한국자동차환경협회),1661-9408,33.2687729,126.5867363,2019-06-30,6500000,제주특별자치도,
예래동주민센터,주차장,제주특별자치도,연중무휴,00:00,23:59,Y,N,,1,0,N,제주특별자치도 서귀포시 예래로 82(상예동),,제주특별자치도,1899-8852,33.2542814,126.3979513,2019-06-30,6500000,제주특별자치도,
예래동주민센터,주차장,제주특별자치도,연중무휴,00:00,23:59,N,Y,AC3상+DC차데모 +DC콤보,0,1,N,제주특별자치도 서귀포시 예래로 82(상예동),,한국전력,1899-2100,33.2542814,126.3979513,2019-06-30,6500000,제주특별자치도,
정방동문화의집,주차장,제주특별자치도,연중무휴,00:00,23:59,N,Y,AC3상+DC차데모 +DC콤보,0,1,N,제주특별자치도 서귀포시 동부로12번길 11,,제주특별자치도,1899-8852,33.2465421,126.5703477,2019-06-30,6500000,제주특별자치도,
구)중문동주민센터,주차장,제주특별자치도,연중무휴,00:00,23:59,Y,N,,1,0,N,제주특별자치도 서귀포시 천제연로 281(중문동),,제주특별자치도,1899-8852,33.2514374,126.4348664,2019-06-30,6500000,제주특별자치도,
색달쓰레기매립장,주차장,제주특별자치도,연중무휴,00:00,23:59,Y,N,,1,0,N,제주특별자치도 서귀포시 산록남로1241번길 145(색달동),,제주특별자치도,1899-8852,33.3070418,126.419081,2019-06-30,6500000,제주특별자치도,
색달쓰레기매립장,주차장,제주특별자치도,연중무휴,00:00,23:59,N,Y,AC3상+DC차데모 +DC콤보,0,2,N,제주특별자치도 서귀포시 산록남로1241번길 145(색달동),,환경부(한국자동차환경협회),1661-9408,33.3070418,126.419081,2019-06-30,6500000,제주특별자치도,
색달하수처리장,주차장,제주특별자치도,연중무휴,00:00,23:59,Y,N,,1,0,N,제주특별자치도 서귀포시 예래해안로 348(색달동),,제주특별자치도,1899-8852,33.2421105,126.3963773,2019-06-30,6500000,제주특별자치도,
서귀포자연휴양림,주차장,제주특별자치도,연중무휴,00:00,23:59,Y,N,,4,0,N,제주특별자치도 서귀포시 대포동 1100로 882,제주특별자치도 서귀포시 대포동 산1-1,제주특별자치도,1899-8852,33.3116678,126.4587607,2019-06-30,6500000,제주특별자치도,
자광원,주차장,제주특별자치도,연중무휴,00:00,23:59,N,Y,AC3상+DC차데모 +DC콤보,0,1,N,제주특별자치도 서귀포시 이어도로 343번길 101(대포동),,제주특별자치도,1899-8852,33.2477147,126.4485341,2019-06-30,6500000,제주특별자치도,
중문동주민센터,주차장,제주특별자치도,연중무휴,00:00,23:59,N,Y,AC3상+DC차데모 +DC콤보,0,1,N,제주특별자치도 서귀포시 1100로 30,,제주특별자치도,1899-8852,33.25333129,126.4336393,2019-06-30,6500000,제주특별자치도,
중문보건지소,주차장,제주특별자치도,연중무휴,00:00,23:59,Y,N,,1,0,N,제주특별자치도 서귀포시 천제연로 147(중문동),,제주특별자치도,1899-8852,33.2535153,126.4208709,2019-06-30,6500000,제주특별자치도,
중앙공영주차장,주차장,제주특별자치도,연중무휴,00:00,23:59,N,Y,AC3상+DC차데모 +DC콤보,0,2,Y,제주특별자치도 서귀포시 서귀동 291-63,제주특별자치도 서귀포시 서귀동 291-63,제주특별자치도,1899-8852,33.2499207,126.5599672,2019-06-30,6500000,제주특별자치도,
중앙공영주차장,주차장,제주특별자치도,연중무휴,00:00,23:59,N,Y,AC3상+DC차데모 +DC콤보,0,3,Y,제주특별자치도 서귀포시 서귀동 291-63,제주특별자치도 서귀포시 서귀동 291-63,환경부(한국자동차환경협회),1661-9408,33.2499207,126.5599672,2019-06-30,6500000,제주특별자치도,
중앙동주민센터,주차장,제주특별자치도,연중무휴,00:00,23:59,Y,N,,2,0,N,제주특별자치도 서귀포시 동문로 39(서귀동),,제주특별자치도,1899-8852,33.2506359,126.5649933,2019-06-30,6500000,제주특별자치도,
천지동주민센터,주차장,제주특별자치도,연중무휴,00:00,23:59,Y,N,,1,0,N,제주특별자치도 서귀포시 중정로47번길 3,,제주특별자치도,1899-8852,33.2477954,126.5612849,2019-06-30,6500000,제주특별자치도,
평생학습관 주차장,주차장,제주특별자치도,연중무휴,00:00,23:59,Y,N,,1,0,N,제주특별자치도 서귀포시 서문로29번길 10(서귀동),,제주특별자치도,1899-8852,33.2493458,126.5589224,2019-06-30,6500000,제주특별자치도,
효돈119센터,주차장,제주특별자치도,연중무휴,00:00,23:59,Y,N,,1,0,N,제주특별자치도 서귀포시 일주동로 8234(신효동),,제주특별자치도,1899-8852,33.260795,126.6078006,2019-06-30,6500000,제주특별자치도,
효돈동주민센터,주차장,제주특별자치도,연중무휴,00:00,23:59,Y,N,,1,0,N,제주특별자치도 서귀포시 효돈로152번길 7,,제주특별자치도,1899-8852,33.2633204,126.6156251,2019-06-30,6500000,제주특별자치도,
효돈동주민센터,주차장,제주특별자치도,연중무휴,00:00,23:59,N,Y,AC3상+DC차데모 +DC콤보,0,1,N,제주특별자치도 서귀포시 효돈로152번길 7,,환경부(한국자동차환경협회),1661-9408,33.2633204,126.6156251,2019-06-30,6500000,제주특별자치도,
효돈축구공원,주차장,제주특별자치도,연중무휴,00:00,23:59,N,Y,AC3상+DC차데모 +DC콤보,0,2,N,제주특별자치도 서귀포시 효돈순화로 311-29,제주특별자치도 서귀포시 신효동 910,제주특별자치도,1899-8852,33.2583809,126.6103677772,2019-06-30,6500000,제주특별자치도,
남원생활체육관,주차장,제주특별자치도,연중무휴,00:00,23:59,N,Y,AC3상+DC차데모 +DC콤보,0,1,N,제주특별자치도 서귀포시 남원읍 태위로 551-28,,제주특별자치도,1899-8852,33.27810723,126.705244,2019-06-30,6500000,제주특별자치도,
남원생활체육관,주차장,제주특별자치도,연중무휴,00:00,23:59,N,Y,AC3상+DC차데모 +DC콤보,0,2,N,제주특별자치도 서귀포시 남원읍 태위로 551-28,,제주특별자치도,1899-8852,33.27810723,126.705244,2019-06-30,6500000,제주특별자치도,
남원읍사무소,주차장,제주특별자치도,연중무휴,00:00,23:59,Y,Y,AC3상+DC차데모 +DC콤보,2,1,N,제주특별자치도 서귀포시 남원읍 태위로 695,,제주특별자치도,1899-8852,33.2797843,126.7205951,2019-06-30,6500000,제주특별자치도,
동부보건소,주차장,제주특별자치도,연중무휴,00:00,23:59,Y,N,,6,0,N,제주특별자치도 서귀포시 남원읍 태위로 527,,제주특별자치도,1899-8852,33.2757617,126.7034172,2019-06-30,6500000,제주특별자치도,
동부보건소,주차장,제주특별자치도,연중무휴,00:00,23:59,N,Y,AC3상+DC차데모 +DC콤보,0,1,N,제주특별자치도 서귀포시 남원읍 태위로 527,,환경부(한국자동차환경협회),1661-9408,33.2757617,126.7034172,2019-06-30,6500000,제주특별자치도,
서귀포농업기술센터,주차장,제주특별자치도,연중무휴,00:00,23:59,Y,N,,3,0,N,제주특별자치도 서귀포시 남원읍 중산간동로 7413,,제주특별자치도,1899-8852,33.28833481,126.6072502,2019-06-30,6500000,제주특별자치도,
서귀포농업기술센터,주차장,제주특별자치도,연중무휴,00:00,23:59,N,Y,AC3상+DC차데모 +DC콤보,0,3,N,제주특별자치도 서귀포시 남원읍 중산간동로 7413,,환경부(한국자동차환경협회),1661-9408,33.28833481,126.6072502,2019-06-30,6500000,제주특별자치도,
제주공천포전지훈련센터,주차장,제주특별자치도,연중무휴,00:00,23:59,N,Y,AC3상+DC차데모 +DC콤보,0,2,N,제주특별자치도 서귀포시 남원읍 신례로 96,,제주특별자치도,1899-8852,33.2771177,126.6413556,2019-06-30,6500000,제주특별자치도,
가파도 마을회관,주차장,제주특별자치도,연중무휴,00:00,23:59,Y,N,,1,0,N,제주특별자치도 서귀포시 대정읍 가파로 73,,제주특별자치도,1899-8852,33.1664333,126.2736156,2019-06-30,6500000,제주특별자치도,
대정 영어교육도시,주차장,제주특별자치도,연중무휴,00:00,23:59,Y,N,,1,0,N,제주특별자치도 서귀포시 대정읍 에듀시티로 86,,제주특별자치도,1899-8852,33.28794082,126.2818294,2019-06-30,6500000,제주특별자치도,
대정 영어교육도시,주차장,제주특별자치도,연중무휴,00:00,23:59,N,Y,AC3상+DC차데모 +DC콤보,0,2,N,제주특별자치도 서귀포시 대정읍 에듀시티로 86,,환경부(한국자동차환경협회),1661-9408,33.28794082,126.2818294,2019-06-30,6500000,제주특별자치도,
대정119센터,주차장,제주특별자치도,연중무휴,00:00,23:59,Y,N,,1,0,N,제주특별자치도 서귀포시 대정읍 일주서로 2717,,제주특별자치도,1899-8852,33.2324732,126.2410807,2019-06-30,6500000,제주특별자치도,
대정읍사무소,주차장,제주특별자치도,연중무휴,00:00,23:59,Y,N,,1,0,N,제주특별자치도 서귀포시 대정읍 하모중앙로 20,,제주특별자치도,1899-8852,33.2267537,126.2520832,2019-06-30,6500000,제주특별자치도,
하모2리주차장,주차장,제주특별자치도,연중무휴,00:00,23:59,N,Y,AC3상+DC차데모 +DC콤보,0,1,N,제주특별자치도 서귀포시 대정읍 하모리 1513,제주특별자치도 서귀포시 대정읍 하모리 1513,환경부(한국자동차환경협회),1661-9408,33.2238582,126.2504231,2019-06-30,6500000,제주특별자치도,
무릉문화의집,주차장,제주특별자치도,연중무휴,00:00,23:59,Y,N,,1,0,N,제주특별자치도 서귀포시 대정읍 서삼중로 128,,제주특별자치도,1899-8852,33.2734542,126.1990405,2019-06-30,6500000,제주특별자치도,
무릉문화의집,주차장,제주특별자치도,연중무휴,00:00,23:59,N,Y,AC3상+DC차데모 +DC콤보,0,1,N,제주특별자치도 서귀포시 대정읍 서삼중로 128,,환경부(한국자동차환경협회),1661-9408,33.2734542,126.1990405,2019-06-30,6500000,제주특별자치도,
서귀포시서부종합사회복지관,주차장,제주특별자치도,연중무휴,00:00,23:59,N,Y,AC3상+DC차데모 +DC콤보,0,2,N,제주특별자치도 서귀포시 대정읍 신영로 23,,제주특별자치도,1899-8852,33.22390252,126.2478797,2019-06-30,6500000,제주특별자치도,
서부보건소,주차장,제주특별자치도,연중무휴,00:00,23:59,Y,Y,AC3상+DC차데모 +DC콤보,4,1,N,제주특별자치도 서귀포시 대정읍 최남단해안로15번길 12,,제주특별자치도,1899-8852,33.2187035,126.2534156,2019-06-30,6500000,제주특별자치도,
송악산 공영주차장,주차장,제주특별자치도,연중무휴,00:00,23:59,N,Y,AC3상+DC차데모 +DC콤보,0,2,N,제주특별자치도 서귀포시 대정읍 상모리 165,,제주특별자치도,1899-8852,33.2059597,126.2867586,2019-06-30,6500000,제주특별자치도,
제주추사관,주차장,제주특별자치도,연중무휴,00:00,23:59,N,Y,AC3상+DC차데모 +DC콤보,0,1,N,제주특별자치도 서귀포시 대정읍 추사로 36번길 1,,제주특별자치도,1899-8852,33.2499613,126.2790157,2019-06-30,6500000,제주특별자치도,
제주추사관,주차장,제주특별자치도,연중무휴,00:00,23:59,N,Y,AC3상+DC차데모 +DC콤보,0,2,N,제주특별자치도 서귀포시 대정읍 추사로 36번길 1,,환경부(한국자동차환경협회),1661-9408,33.2499613,126.2790157,2019-06-30,6500000,제주특별자치도,
제주추사관,주차장,제주특별자치도,연중무휴,00:00,23:59,Y,N,,3,0,N,제주특별자치도 서귀포시 대정읍 추사로 36번길 1,,KT,1522-0123,33.2499613,126.2790157,2019-06-30,6500000,제주특별자치도,
동부소방서,주차장,제주특별자치도,연중무휴,00:00,23:59,Y,N,,1,0,N,제주특별자치도 서귀포시 성산읍 일주동로4120번길 7,,제주특별자치도,1899-8852,33.460229,126.9100702,2019-06-30,6500000,제주특별자치도,
동부소방서,주차장,제주특별자치도,연중무휴,00:00,23:59,N,Y,AC3상+DC차데모 +DC콤보,0,1,N,제주특별자치도 서귀포시 성산읍 일주동로4120번길 7,,환경부(한국자동차환경협회),1661-9408,33.460229,126.9100702,2019-06-30,6500000,제주특별자치도,
동부소방서,주차장,제주특별자치도,연중무휴,00:00,23:59,N,Y,AC3상+DC차데모 +DC콤보,0,1,N,제주특별자치도 서귀포시 성산읍 일주동로4120번길 7,,한국전력,1899-2100,33.460229,126.9100702,2019-06-30,6500000,제주특별자치도,
동부종합사회복지관,주차장,제주특별자치도,연중무휴,00:00,23:59,N,Y,AC3상+DC차데모 +DC콤보,0,2,N,제주특별자치도 서귀포시 성산읍 일출로 14-11,,제주특별자치도,1899-8852,33.4467084,126.9133734,2019-06-30,6500000,제주특별자치도,
성산보건지소,주차장,제주특별자치도,연중무휴,00:00,23:59,Y,N,,1,0,N,제주특별자치도 서귀포시 성산읍 고성오조로 42,,제주특별자치도,1899-8852,33.44655575,126.9157493,2019-06-30,6500000,제주특별자치도,
성산읍사무소,주차장,제주특별자치도,연중무휴,00:00,23:59,Y,Y,AC3상+DC차데모 +DC콤보,2,3,N,제주특별자치도 서귀포시 성산읍 일주동로 4330,,제주특별자치도,1899-8852,33.4424138,126.9110996,2019-06-30,6500000,제주특별자치도,
성산읍사무소,주차장,제주특별자치도,연중무휴,00:00,23:59,N,Y,AC3상+DC차데모 +DC콤보,0,1,N,제주특별자치도 서귀포시 성산읍 일주동로 4330,,환경부(한국자동차환경협회),1661-9408,33.4424138,126.9110996,2019-06-30,6500000,제주특별자치도,
신산 청소년 문화의 집,주차장,제주특별자치도,연중무휴,00:00,23:59,N,Y,AC3상+DC차데모 +DC콤보,0,1,N,제주특별자치도 서귀포시 성산읍 일주동로 5101-1,,제주특별자치도,1899-8852,33.3811222,126.8773508,2019-06-30,6500000,제주특별자치도,
혼인지,주차장,제주특별자치도,연중무휴,00:00,23:59,N,Y,AC3상+DC차데모 +DC콤보,0,2,N,제주특별자치도 서귀포시 성산읍 혼인지로 39-22,,제주특별자치도,1899-8852,33.4149305,126.8941019,2019-06-30,6500000,제주특별자치도,
안덕면사무소,주차장,제주특별자치도,연중무휴,00:00,23:59,Y,N,,4,0,N,제주특별자치도 서귀포시 안덕면 화순서서로 74,,제주특별자치도,1899-8852,33.2575319,126.3307426,2019-06-30,6500000,제주특별자치도,
안덕면사무소,주차장,제주특별자치도,연중무휴,00:00,23:59,N,Y,AC3상+DC차데모 +DC콤보,0,4,N,제주특별자치도 서귀포시 안덕면 화순서서로 74,,환경부(한국자동차환경협회),1661-9408,33.2575319,126.3307426,2019-06-30,6500000,제주특별자치도,
안덕산방도서관,주차장,제주특별자치도,연중무휴,00:00,23:59,Y,N,,1,0,N,제주특별자치도 서귀포시 안덕면 화순서서로 44,,제주특별자치도,1899-8852,33.2550127,126.3307261,2019-06-30,6500000,제주특별자치도,
붉은오름 자연휴양림,주차장,제주특별자치도,연중무휴,00:00,23:59,Y,N,,1,0,N,제주특별자치도 서귀포시 표선면 남조로 1487-73,,제주특별자치도,1899-8852,33.4018105,126.6753835,2019-06-30,6500000,제주특별자치도,
표선119센터,주차장,제주특별자치도,연중무휴,00:00,23:59,Y,N,,1,0,N,제주특별자치도 서귀포시 표선면 표선관정로 39-16,,제주특별자치도,1899-8852,33.3271647,126.8277779,2019-06-30,6500000,제주특별자치도,
표선면사무소,주차장,제주특별자치도,연중무휴,00:00,23:59,Y,N,,2,0,N,제주특별자치도 서귀포시 표선면 표선중앙로 74,,제주특별자치도,1899-8852,33.3262254,126.8321113,2019-06-30,6500000,제주특별자치도,
표선면사무소,주차장,제주특별자치도,연중무휴,00:00,23:59,N,Y,AC3상+DC차데모 +DC콤보,0,1,N,제주특별자치도 서귀포시 표선면 표선중앙로 74,,환경부(한국자동차환경협회),1661-9408,33.3262254,126.8321113,2019-06-30,6500000,제주특별자치도,
표선보건지소,주차장,제주특별자치도,연중무휴,00:00,23:59,Y,N,,1,0,N,제주특별자치도 서귀포시 표선면 표선중앙로 21,,제주특별자치도,1899-8852,33.3311424,126.8306129,2019-06-30,6500000,제주특별자치도,
해양수산연구원,주차장,제주특별자치도,연중무휴,00:00,23:59,Y,N,,1,0,N,제주특별자치도 서귀포시 표선면 민속해안로 292,,제주특별자치도,1899-8852,33.3074886,126.8293373,2019-06-30,6500000,제주특별자치도,
건입동주민센터,주차장,제주특별자치도,연중무휴,00:00,23:59,Y,N,,1,0,N,제주특별자치도 제주시 만덕로 18(건입동),,제주특별자치도,1899-8852,33.5150116,126.5315988,2019-06-30,6500000,제주특별자치도,
건입동주민센터,주차장,제주특별자치도,연중무휴,00:00,23:59,N,Y,AC3상+DC차데모 +DC콤보,0,1,N,제주특별자치도 제주시 만덕로 18(건입동),,환경부(한국자동차환경협회),1661-9408,33.5150116,126.5315988,2019-06-30,6500000,제주특별자치도,
제주시 평생학습센터,주차장,제주특별자치도,연중무휴,00:00,23:59,Y,Y,AC3상+DC차데모 +DC콤보,2,1,N,제주특별자치도 제주시 사라봉동길 15(건입동),,제주특별자치도,1899-8852,33.5140706,126.5474449,2019-06-30,6500000,제주특별자치도,
제주항여객터미널,주차장,제주특별자치도,연중무휴,00:00,23:59,N,Y,AC3상+DC차데모 +DC콤보,0,2,N,제주특별자치도 제주시 임항로 111,,제주특별자치도,1899-8852,33.51953529,126.5350373,2019-06-30,6500000,제주특별자치도,
제주해양관리단,주차장,제주특별자치도,연중무휴,00:00,23:59,Y,N,,2,0,N,제주특별자치도 제주시 임항로 128(건입동),,제주특별자치도,1899-8852,33.5192613,126.5375945,2019-06-30,6500000,제주특별자치도,
노형119센터,주차장,제주특별자치도,연중무휴,00:00,23:59,Y,N,,1,0,N,제주특별자치도 제주시 광평동로 2(노형동),,제주특별자치도,1899-8852,33.4810713,126.4723194,2019-06-30,6500000,제주특별자치도,
노형동주민센터,주차장,제주특별자치도,연중무휴,00:00,23:59,Y,N,,1,0,N,제주특별자치도 제주시 노형9길 9-4(노형동),,제주특별자치도,1899-8852,33.48306793,126.4771831,2019-06-30,6500000,제주특별자치도,
노형동주민센터,주차장,제주특별자치도,연중무휴,00:00,23:59,N,Y,AC3상+DC차데모 +DC콤보,0,2,N,제주특별자치도 제주시 노형9길 9-4(노형동),,환경부(한국자동차환경협회),1661-9408,33.48306793,126.4771831,2019-06-30,6500000,제주특별자치도,
노형삼다아파트 앞 공영주차장,주차장,제주특별자치도,연중무휴,00:00,23:59,N,Y,AC3상+DC차데모 +DC콤보,0,2,Y,제주특별자치도 제주시 노형동 1282-2,,제주특별자치도,1899-8852,33.4863121,126.4763326,2019-06-30,6500000,제주특별자치도,
제주도근로자종합복지관,주차장,제주특별자치도,연중무휴,00:00,23:59,N,Y,AC3상+DC차데모 +DC콤보,0,2,Y,제주특별자치도 제주시 수목원길 9,,제주특별자치도,1899-8852,33.46969727,126.486231,2019-06-30,6500000,제주특별자치도,
제주시 공영버스 주차장,주차장,제주특별자치도,연중무휴,00:00,23:59,Y,N,,1,0,N,제주특별자치도 제주시 수목원서길 17(노형동),,제주특별자치도,1899-8852,33.4688568,126.4831695,2019-06-30,6500000,제주특별자치도,
축산진흥원,주차장,제주특별자치도,연중무휴,00:00,23:59,Y,Y,AC3상+DC차데모 +DC콤보,1,1,N,제주특별자치도 제주시 축산마을길 13(노형동),,제주특별자치도,1899-8852,33.4414666,126.4871027,2019-06-30,6500000,제주특별자치도,
탐라도서관,주차장,제주특별자치도,연중무휴,00:00,23:59,N,Y,AC3상+DC차데모 +DC콤보,0,3,N,제주특별자치도 제주시 정원로 50,,제주특별자치도,1899-8852,33.47919835,126.4771977,2019-06-30,6500000,제주특별자치도,
도두동주민센터,주차장,제주특별자치도,연중무휴,00:00,23:59,Y,N,,1,0,N,제주특별자치도 제주시 도두1길 9-1(도두일동),,제주특별자치도,1899-8852,33.5028684,126.4682368,2019-06-30,6500000,제주특별자치도,
도두동주민센터,주차장,제주특별자치도,연중무휴,00:00,23:59,N,Y,AC3상+DC차데모 +DC콤보,0,1,N,제주특별자치도 제주시 도두1길 9-1(도두일동),,한국전력,1899-2100,33.5028684,126.4682368,2019-06-30,6500000,제주특별자치도,
도두하수처리장,주차장,제주특별자치도,연중무휴,00:00,23:59,Y,N,,1,0,N,제주특별자치도 제주시 도리로 254(도두이동),,제주특별자치도,1899-8852,33.5066984,126.4770985,2019-06-30,6500000,제주특별자치도,
봉개동주민센터,주차장,제주특별자치도,연중무휴,00:00,23:59,Y,N,,1,0,N,제주특별자치도 제주시 봉개북1길 15(봉개동),,제주특별자치도,1899-8852,33.4917114,126.5948784,2019-06-30,6500000,제주특별자치도,
봉개동주민센터,주차장,제주특별자치도,연중무휴,00:00,23:59,N,Y,AC3상+DC차데모 +DC콤보,0,1,N,제주특별자치도 제주시 봉개북1길 15(봉개동),,환경부(한국자동차환경협회),1661-9408,33.4917114,126.5948784,2019-06-30,6500000,제주특별자치도,
절물자연휴양림,주차장,제주특별자치도,연중무휴,00:00,23:59,Y,Y,AC3상+DC차데모 +DC콤보,1,1,N,제주특별자치도 제주시 명림로 584(봉개동),,제주특별자치도,1899-8852,33.4393726,126.6284479,2019-06-30,6500000,제주특별자치도,
제주4.3평화공원,주차장,제주특별자치도,연중무휴,00:00,23:59,N,Y,AC3상+DC차데모 +DC콤보,0,1,N,제주특별자치도 제주시 명림로 430(봉개동),,제주특별자치도,1899-8852,33.45086927,126.6206776,2019-06-30,6500000,제주특별자치도,
제주환경사무소,주차장,제주특별자치도,연중무휴,00:00,23:59,Y,N,,1,0,N,제주특별자치도 제주시 송이길 226(회천동),,제주특별자치도,1899-8852,33.46136662,126.6299215,2019-06-30,6500000,제주특별자치도,
삼도1동청소년문화의집,주차장,제주특별자치도,연중무휴,00:00,23:59,Y,N,,1,0,N,제주특별자치도 제주시 서사로14길 16,,제주특별자치도,1899-8852,33.5036928,126.5182971,2019-06-30,6500000,제주특별자치도,
삼도1동 주민센터,주차장,제주특별자치도,연중무휴,00:00,23:59,Y,N,,2,0,N,제주특별자치도 제주시 삼도1동 508-4,제주특별자치도 제주시 삼도1동 508-4,제주특별자치도,1899-8852,33.5042444,126.5173858,2019-06-30,6500000,제주특별자치도,
삼도2동주민센터,주차장,제주특별자치도,연중무휴,00:00,23:59,Y,N,,1,0,N,제주특별자치도 제주시 관덕로6길 15,,제주특별자치도,1899-8852,33.5117299,126.5222682,2019-06-30,6500000,제주특별자치도,
해변공연장,주차장,제주특별자치도,연중무휴,00:00,23:59,N,Y,AC3상+DC차데모 +DC콤보,0,1,N,제주특별자치도 제주시 중앙로 2,,제주특별자치도,1899-8852,33.518116,126.5241853,2019-06-30,6500000,제주특별자치도,
삼양동주민센터,주차장,제주특별자치도,연중무휴,00:00,23:59,Y,Y,AC3상+DC차데모 +DC콤보,1,1,N,제주특별자치도 제주시 지석13길 6(삼양이동),,제주특별자치도,1899-8852,33.5218396,126.5857081,2019-06-30,6500000,제주특별자치도,
삼양동주민센터,주차장,제주특별자치도,연중무휴,00:00,23:59,N,Y,AC3상+DC차데모 +DC콤보,0,1,N,제주특별자치도 제주시 516로 3120(아라1동),,환경부(한국자동차환경협회),1661-9408,33.4526894,126.5531188,2019-06-30,6500000,제주특별자치도,
도장애인종합복지관,주차장,제주특별자치도,연중무휴,00:00,23:59,N,Y,AC3상+DC차데모 +DC콤보,0,1,N,제주특별자치도 제주시 516로 3120(아라1동),,제주특별자치도,1899-8852,33.4526894,126.5531188,2019-06-30,6500000,제주특별자치도,
아라동주민센터,주차장,제주특별자치도,연중무휴,00:00,23:59,Y,Y,AC3상+DC차데모 +DC콤보,1,1,N,제주특별자치도 제주시 중앙로 527(아라일동),,제주특별자치도,1899-8852,33.4763055,126.5450535,2019-06-30,6500000,제주특별자치도,
아라지구 공영주차장,주차장,제주특별자치도,연중무휴,00:00,23:59,N,Y,AC3상+DC차데모 +DC콤보,0,1,N,제주특별자치도 제주시 아라1동 6093-4,제주특별자치도 제주시 아라1동 6093-4,제주특별자치도,1899-8852,33.4261379,126.5626925,2019-06-30,6500000,제주특별자치도,
양지공원,주차장,제주특별자치도,연중무휴,00:00,23:59,Y,Y,AC3상+DC차데모 +DC콤보,5,1,N,제주특별자치도 제주시 516로 2810-31,,제주특별자치도,1899-8852,33.4400136,126.5799838,2019-06-30,6500000,제주특별자치도,
양지공원,주차장,제주특별자치도,연중무휴,00:00,23:59,N,Y,DC콤보,0,2,N,제주특별자치도 제주시 516로 2810-31,,환경부(한국자동차환경협회),1661-9408,33.4400136,126.5799838,2019-06-30,6500000,제주특별자치도,
인재개발원,주차장,제주특별자치도,연중무휴,00:00,23:59,Y,Y,AC3상+DC차데모 +DC콤보,2,2,N,제주특별자치도 제주시 산천단동길 26(아라일동),,제주특별자치도,1899-8852,33.4468976,126.5601614,2019-06-30,6500000,제주특별자치도,
인재개발원,주차장,제주특별자치도,연중무휴,00:00,23:59,N,Y,AC3상+DC차데모 +DC콤보,0,1,N,제주특별자치도 제주시 산천단동길 26(아라일동),,환경부(한국자동차환경협회),1661-9408,33.4468976,126.5601614,2019-06-30,6500000,제주특별자치도,
자치경찰단아라청사,주차장,제주특별자치도,연중무휴,00:00,23:59,Y,N,,6,0,N,제주특별자치도 제주시 기자길 7(아라이동),,제주특별자치도,1899-8852,33.4850238,126.5442901,2019-06-30,6500000,제주특별자치도,
자치경찰단아라청사,주차장,제주특별자치도,연중무휴,00:00,23:59,N,Y,AC3상+DC차데모 +DC콤보,0,1,N,제주특별자치도 제주시 기자길 7(아라이동),,환경부(한국자동차환경협회),1661-9408,33.4850238,126.5442901,2019-06-30,6500000,제주특별자치도,
제주시각장애인복지관,주차장,제주특별자치도,연중무휴,00:00,23:59,N,Y,AC3상+DC차데모 +DC콤보,0,1,N,제주특별자치도 제주시 아봉로 433,,제주특별자치도,1899-8852,33.4710751,126.581262,2019-06-30,6500000,제주특별자치도,
보건환경연구원,주차장,제주특별자치도,연중무휴,00:00,23:59,Y,N,,1,0,N,제주특별자치도 제주시 삼동길 41,,제주특별자치도,1899-8852,33.4798486,126.4951395,2019-06-30,6500000,제주특별자치도,
보건환경연구원,주차장,제주특별자치도,연중무휴,00:00,23:59,N,Y,AC3상+DC차데모 +DC콤보,0,1,N,제주특별자치도 제주시 삼동길 41,,환경부(한국자동차환경협회),1661-9408,33.4798486,126.4951395,2019-06-30,6500000,제주특별자치도,
설문대여성문화센터,주차장,제주특별자치도,연중무휴,00:00,23:59,Y,N,,1,0,N,제주특별자치도 제주시 선덕로8길 12,,제주특별자치도,1899-8852,33.4844207,126.500595,2019-06-30,6500000,제주특별자치도,
설문대여성문화센터,주차장,제주특별자치도,연중무휴,00:00,23:59,N,Y,AC3상+DC차데모 +DC콤보,0,1,N,제주특별자치도 제주시 선덕로8길 12,,환경부(한국자동차환경협회),1661-9408,33.4844207,126.500595,2019-06-30,6500000,제주특별자치도,
연동119센터,주차장,제주특별자치도,연중무휴,00:00,23:59,Y,N,,1,0,N,제주특별자치도 제주시 문송길 14(연동),,제주특별자치도,1899-8852,33.4884767,126.4971594,2019-06-30,6500000,제주특별자치도,
연동주민센터,주차장,제주특별자치도,연중무휴,00:00,23:59,Y,N,,1,0,N,제주특별자치도 제주시 신대로 101,,제주특별자치도,1899-8852,33.4882923,126.4969722,2019-06-30,6500000,제주특별자치도,
제주도 소방안전본부,주차장,제주특별자치도,연중무휴,00:00,23:59,Y,N,,3,0,N,제주특별자치도 제주시 신대로9길 22,,제주특별자치도,1899-8852,33.490553,126.4990195,2019-06-30,6500000,제주특별자치도,
제주도교육청,주차장,제주특별자치도,연중무휴,00:00,23:59,N,Y,AC3상+DC차데모 +DC콤보,0,1,N,제주특별자치도 제주시 문연로 5(연동),,제주특별자치도,1899-8852,33.4902703,126.4982303,2019-06-30,6500000,제주특별자치도,
제주도교육청,주차장,제주특별자치도,연중무휴,00:00,23:59,N,Y,AC3상+DC차데모 +DC콤보,0,2,N,제주특별자치도 제주시 문연로 5(연동),,한국전력,1899-2100,33.4902703,126.4982303,2019-06-30,6500000,제주특별자치도,
제주도의회,주차장,제주특별자치도,연중무휴,00:00,23:59,Y,Y,AC3상+DC차데모 +DC콤보,1,2,N,제주특별자치도 제주시 문연로 13,,제주특별자치도,1899-8852,33.4903182,126.4992861,2019-06-30,6500000,제주특별자치도,
제주도청 1청사,주차장,제주특별자치도,연중무휴,00:00,23:59,Y,Y,AC3상+DC차데모 +DC콤보,10,6,Y,제주특별자치도 제주시 문연로 6(연동),,제주특별자치도,1899-8852,33.4888341,126.4980797,2019-06-30,6500000,제주특별자치도,
제주도청 1청사,주차장,제주특별자치도,연중무휴,00:00,23:59,N,Y,AC3상+DC차데모 +DC콤보,0,1,Y,제주특별자치도 제주시 문연로 6(연동),,환경부(한국자동차환경협회),1661-9408,33.4888341,126.4980797,2019-06-30,6500000,제주특별자치도,
제주도청 2청사,주차장,제주특별자치도,연중무휴,00:00,23:59,Y,N,,5,0,N,제주특별자치도 제주시 문연로 30(연동),,제주특별자치도,1899-8852,33.4890071,126.5006816,2019-06-30,6500000,제주특별자치도,
제주도청 2청사,주차장,제주특별자치도,연중무휴,00:00,23:59,N,Y,AC3상+DC차데모,0,1,N,제주특별자치도 제주시 문연로 30(연동),,환경부(한국자동차환경협회),1661-9408,33.4890071,126.5006816,2019-06-30,6500000,제주특별자치도,
제주도청 2청사 후문 공영주차장,주차장,제주특별자치도,연중무휴,00:00,23:59,N,Y,AC3상+DC차데모 +DC콤보,0,2,Y,제주특별자치도 제주시 연동 322-8,제주특별자치도 제주시 연동 322-8,제주특별자치도,1899-8852,33.4881996,126.5001059,2019-06-30,6500000,제주특별자치도,
한라수목원,주차장,제주특별자치도,연중무휴,00:00,23:59,Y,N,,1,0,Y,제주특별자치도 제주시 수목원길 72,,제주특별자치도,1899-8852,33.4699272,126.4932445,2019-06-30,6500000,제주특별자치도,
한라수목원,주차장,제주특별자치도,연중무휴,00:00,23:59,N,Y,AC3상+DC차데모 +DC콤보,0,1,Y,제주특별자치도 제주시 수목원길 72,,환경부(한국자동차환경협회),1661-9408,33.4699272,126.4932445,2019-06-30,6500000,제주특별자치도,
오라동주민센터,주차장,제주특별자치도,연중무휴,00:00,23:59,Y,Y,AC3상+DC차데모 +DC콤보,1,1,N,제주특별자치도 제주시 오라로10길 6(오라이동),,제주특별자치도,1899-8852,33.4951336,126.511555,2019-06-30,6500000,제주특별자치도,
제주아트센터,주차장,제주특별자치도,연중무휴,00:00,23:59,Y,N,,1,0,N,제주특별자치도 제주시 오남로 231(오라이동)　,,제주특별자치도,1899-8852,33.4754636,126.5156482,2019-06-30,6500000,제주특별자치도,
제주종합경기장,주차장,제주특별자치도,연중무휴,00:00,23:59,Y,N,,3,0,N,제주특별자치도 제주시 서광로2길 24(오라일동),,제주특별자치도,1899-8852,33.4949885,126.5189264,2019-06-30,6500000,제주특별자치도,
제주종합경기장,주차장,제주특별자치도,연중무휴,00:00,23:59,N,Y,AC3상+DC차데모 +DC콤보,0,5,N,제주특별자치도 제주시 서광로2길 24(오라일동),,한국전력,1899-2100,33.4949885,126.5189264,2019-06-30,6500000,제주특별자치도,
제주종합경기장,주차장,제주특별자치도,연중무휴,00:00,23:59,N,Y,AC3상+DC차데모 +DC콤보,0,2,N,제주특별자치도 제주시 서광로2길 24(오라일동),,환경부(한국자동차환경협회),1661-9408,33.4949885,126.5189264,2019-06-30,6500000,제주특별자치도,
제주춘강의원,주차장,제주특별자치도,연중무휴,00:00,23:59,N,Y,AC3상+DC차데모 +DC콤보,0,1,N,제주특별자치도 제주시 월구 1길 73,,제주특별자치도,1899-8852,33.493696,126.5017091,2019-06-30,6500000,제주특별자치도,
외도1동 공영주차장,주차장,제주특별자치도,연중무휴,00:00,23:59,N,Y,AC3상+DC차데모 +DC콤보,0,1,N,제주특별자치도 제주시 외도1동 497-16,제주특별자치도 제주시 외도1동 497-16,제주특별자치도,1899-8852,33.4876623,126.429739,2019-06-30,6500000,제주특별자치도,
외도동주민센터,주차장,제주특별자치도,연중무휴,00:00,23:59,Y,N,,1,0,N,제주특별자치도 제주시 일주서로 7350,,제주특별자치도,1899-8852,33.4929556,126.4322517,2019-06-30,6500000,제주특별자치도,
외도동주민센터,주차장,제주특별자치도,연중무휴,00:00,23:59,N,Y,AC3상+DC차데모 +DC콤보,0,1,N,제주특별자치도 제주시 일주서로 7350,,환경부(한국자동차환경협회),1661-9408,33.4929556,126.4322517,2019-06-30,6500000,제주특별자치도,
제주도농아복지관,주차장,제주특별자치도,연중무휴,00:00,23:59,Y,Y,AC3상+DC차데모 +DC콤보,2,2,N,제주특별자치도 제주시 우령서로16길 19(외도일동),,제주특별자치도,1899-8852,33.4848735,126.4257375,2019-06-30,6500000,제주특별자치도,
제주양로원,주차장,제주특별자치도,연중무휴,00:00,23:59,Y,Y,AC3상+DC차데모 +DC콤보,2,1,N,제주특별자치도 제주시 장군내길 68-1,,제주특별자치도,1899-8852,33.4736727,126.4482646,2019-06-30,6500000,제주특별자치도,
용담1동주민센터,주차장,제주특별자치도,연중무휴,00:00,23:59,Y,N,,1,0,N,제주특별자치도 제주시 용남3길 11(용담일동),,제주특별자치도,1899-8852,33.5091014,126.5133435,2019-06-30,6500000,제주특별자치도,
용담2동주민센터,주차장,제주특별자치도,연중무휴,00:00,23:59,Y,Y,AC3상+DC차데모 +DC콤보,1,1,N,제주특별자치도 제주시 흥운길 27(용담이동),,제주특별자치도,1899-8852,33.5115829,126.5118008,2019-06-30,6500000,제주특별자치도,
이도1동주민센터,주차장,제주특별자치도,연중무휴,00:00,23:59,Y,N,,1,0,N,제주특별자치도 제주시 중앙로25길 17(이도일동),,제주특별자치도,1899-8852,33.5067302,126.5270745,2019-06-30,6500000,제주특별자치도,
이도1동주민센터,주차장,제주특별자치도,연중무휴,00:00,23:59,N,Y,AC3상+DC차데모 +DC콤보,0,1,N,제주특별자치도 제주시 중앙로25길 17(이도일동),,환경부(한국자동차환경협회),1661-9408,33.5067302,126.5270745,2019-06-30,6500000,제주특별자치도,
동부경찰서,주차장,제주특별자치도,연중무휴,00:00,23:59,N,Y,AC3상+DC차데모 +DC콤보,0,2,N,제주특별자치도 제주시 동광로 66,,제주특별자치도,1899-8852,33.50317947,126.5367089,2019-06-30,6500000,제주특별자치도,
이도2동공영주차장,주차장,제주특별자치도,연중무휴,00:00,23:59,N,Y,AC3상+DC차데모 +DC콤보,0,2,Y,제주특별자치도 제주시 오복3길 9(이도이동),,제주특별자치도,1899-8852,33.49678952,126.5349264,2019-06-30,6500000,제주특별자치도,
이도2동주민센터,주차장,제주특별자치도,연중무휴,00:00,23:59,Y,N,,1,0,N,제주특별자치도 제주시 오복3길 8,,제주특별자치도,1899-8852,33.497027,126.5353955,2019-06-30,6500000,제주특별자치도,
제주벤처마루,주차장,제주특별자치도,연중무휴,00:00,23:59,N,Y,AC3상+DC차데모 +DC콤보,0,1,N,제주특별자치도 제주시 중앙로 217(이도이동),,제주특별자치도,1899-8852,33.5003147,126.5300349,2019-06-30,6500000,제주특별자치도,
제주보건소,주차장,제주특별자치도,연중무휴,00:00,23:59,Y,Y,AC3상+DC차데모 +DC콤보,4,1,N,제주특별자치도 제주시 연삼로 264,,제주특별자치도,1899-8852,33.4917032,126.5202864,2019-06-30,6500000,제주특별자치도,
제주소방서,주차장,제주특별자치도,연중무휴,00:00,23:59,Y,N,,4,0,N,　제주특별자치도 제주시 중앙로 342(이도이동),,제주특별자치도,1899-8852,33.4909396,126.5366274,2019-06-30,6500000,제주특별자치도,
제주시청,주차장,제주특별자치도,연중무휴,00:00,23:59,Y,Y,AC3상+DC차데모 +DC콤보,11,5,Y,제주특별자치도 제주시 광양9길 10,,제주특별자치도,1899-8852,33.50021259,126.5322178,2019-06-30,6500000,제주특별자치도,
제주시청,주차장,제주특별자치도,연중무휴,00:00,23:59,N,Y,AC3상+DC차데모,0,1,Y,제주특별자치도 제주시 광양9길 10,,환경부(한국자동차환경협회),1661-9408,33.50021259,126.5322178,2019-06-30,6500000,제주특별자치도,
제주시청 지하 열린정보실,주차장,제주특별자치도,연중무휴,00:00,23:59,Y,N,,3,0,N,제주특별자치도 제주시 동광로6길 22(이도이동),,제주특별자치도,1899-8852,33.50027862,126.5325144,2019-06-30,6500000,제주특별자치도,
제주학생문화원,주차장,제주특별자치도,연중무휴,00:00,23:59,N,Y,AC3상+DC차데모 +DC콤보,0,1,N,제주특별자치도 제주시 연삼로 489,,제주특별자치도,1899-8852,33.5007234,126.5410454,2019-06-30,6500000,제주특별자치도,
고용센터,주차장,제주특별자치도,연중무휴,00:00,23:59,Y,Y,AC3상+DC차데모 +DC콤보,1,1,N,제주특별자치도 제주시 중앙로 165 (이도일동),,제주특별자치도,1899-8852,33.5044201,126.5271265,2019-06-30,6500000,제주특별자치도,
이호동주민센터,주차장,제주특별자치도,연중무휴,00:00,23:59,Y,N,,1,0,N,제주특별자치도 제주시 백포서길 9(이호일동),,제주특별자치도,1899-8852,33.4997537,126.4581461,2019-06-30,6500000,제주특별자치도,
이호동주민센터,주차장,제주특별자치도,연중무휴,00:00,23:59,N,Y,AC3상+DC차데모 +DC콤보,0,1,N,제주특별자치도 제주시 백포서길 9(이호일동),,환경부(한국자동차환경협회),1661-9408,33.4997537,126.4581461,2019-06-30,6500000,제주특별자치도,
일도1동주민센터,주차장,제주특별자치도,연중무휴,00:00,23:59,Y,N,,1,0,N,제주특별자치도 제주시 중앙로7길 15,,제주특별자치도,1899-8852,33.5150703,126.5264434,2019-06-30,6500000,제주특별자치도,
문화예술진흥원,주차장,제주특별자치도,연중무휴,00:00,23:59,Y,Y,AC3상+DC차데모 +DC콤보,2,1,N,제주특별자치도 제주시 동광로 69(일도이동),,제주특별자치도,1899-8852,33.5043089,126.5353859,2019-06-30,6500000,제주특별자치도,
민속자연사박물관,주차장,제주특별자치도,연중무휴,00:00,23:59,Y,N,,1,0,N,제주특별자치도 제주시 삼성로 40(일도이동),,제주특별자치도,1899-8852,33.5061399,126.5316454,2019-06-30,6500000,제주특별자치도,
민속자연사박물관,주차장,제주특별자치도,연중무휴,00:00,23:59,N,Y,AC3상+DC차데모 +DC콤보,0,1,N,제주특별자치도 제주시 삼성로 40(일도이동),,환경부(한국자동차환경협회),1661-9408,33.5061399,126.5316454,2019-06-30,6500000,제주특별자치도,
일도2동주민센터,주차장,제주특별자치도,연중무휴,00:00,23:59,Y,N,,1,0,N,제주특별자치도 제주시 고마로 28,,제주특별자치도,1899-8852,33.5116144,126.5382172,2019-06-30,6500000,제주특별자치도,
일도삼주아파트,주차장,제주특별자치도,연중무휴,00:00,23:59,N,Y,AC3상+DC차데모 +DC콤보,0,1,N,제주특별자치도 제주시 천수로 56(일도이동),,제주특별자치도,1899-8852,33.5039515,126.5426023,2019-06-30,6500000,제주특별자치도,
제주문화콘텐츠진흥원,주차장,제주특별자치도,연중무휴,00:00,23:59,N,Y,AC3상+DC차데모 +DC콤보,0,2,N,제주특별자치도 제주시 신산로 82(일도이동),,제주특별자치도,1899-8852,33.5054697,126.5345108,2019-06-30,6500000,제주특별자치도,
제주애덕의집,주차장,제주특별자치도,연중무휴,00:00,23:59,N,Y,AC3상+DC차데모 +DC콤보,0,1,N,제주특별자치도 제주시 기와5길 87,,제주특별자치도,1899-8852,33.49013392,126.5580751,2019-06-30,6500000,제주특별자치도,
화북119센터,주차장,제주특별자치도,연중무휴,00:00,23:59,Y,N,,1,0,N,　제주특별자치도 제주시 동화로 1길 3(화북일동),,제주특별자치도,1899-8852,33.5194139,126.5735544,2019-06-30,6500000,제주특별자치도,
화북동주민센터,주차장,제주특별자치도,연중무휴,00:00,23:59,Y,N,,1,0,N,제주특별자치도 제주시 진남로6길 17(화북일동),,제주특별자치도,1899-8852,33.520225,126.5654876,2019-06-30,6500000,제주특별자치도,
화북동주민센터,주차장,제주특별자치도,연중무휴,00:00,23:59,N,Y,AC3상+DC차데모 +DC콤보,0,1,N,제주특별자치도 제주시 진남로6길 17(화북일동),,환경부(한국자동차환경협회),1661-9408,33.520225,126.5654876,2019-06-30,6500000,제주특별자치도,
구좌읍주민센터,주차장,제주특별자치도,연중무휴,00:00,23:59,Y,Y,AC3상+DC차데모 +DC콤보,4,1,N,제주특별자치도 제주시 일주동로 3116,,제주특별자치도,1899-8852,33.5225168,126.8518012,2019-06-30,6500000,제주특별자치도,
구좌읍주민센터,주차장,제주특별자치도,연중무휴,00:00,23:59,N,Y,AC3상+DC차데모,0,1,N,제주특별자치도 제주시 일주동로 3116,,환경부(한국자동차환경협회),1661-9408,33.5225168,126.8518012,2019-06-30,6500000,제주특별자치도,
동부농업기술센터,주차장,제주특별자치도,연중무휴,00:00,23:59,Y,N,,1,0,N,제주특별자치도 제주시 구좌읍 김녕남6길 8,,제주특별자치도,1899-8852,33.5500699,126.750406,2019-06-30,6500000,제주특별자치도,
동부농업기술센터,주차장,제주특별자치도,연중무휴,00:00,23:59,N,Y,AC3상+DC차데모 +DC콤보,0,1,N,제주특별자치도 제주시 구좌읍 김녕남6길 8,,한국전력,1899-2100,33.5500699,126.750406,2019-06-30,6500000,제주특별자치도,
동부농업기술센터 교육장,주차장,제주특별자치도,연중무휴,00:00,23:59,Y,N,,1,0,N,제주특별자치도 제주시 구좌읍 충렬로 166,,제주특별자치도,1899-8852,33.51094222,126.8426837,2019-06-30,6500000,제주특별자치도,
동부보건소,주차장,제주특별자치도,연중무휴,00:00,23:59,Y,N,,4,0,N,제주특별자치도 제주시 구좌읍 김녕로14길 6,,제주특별자치도,1899-8852,33.5543773,126.7513422,2019-06-30,6500000,제주특별자치도,
동부보건소,주차장,제주특별자치도,연중무휴,00:00,23:59,N,Y,AC3상+DC차데모 +DC콤보,0,2,N,제주특별자치도 제주시 구좌읍 김녕로14길 6,,한국전력,1899-2100,33.5543773,126.7513422,2019-06-30,6500000,제주특별자치도,
동제주종합사회복지관,주차장,제주특별자치도,연중무휴,00:00,23:59,N,Y,AC3상+DC차데모 +DC콤보,0,1,N,제주특별자치도 제주시 구좌읍 평대12길 15,,제주특별자치도,1899-8852,33.5230697,126.8487174,2019-06-30,6500000,제주특별자치도,
소망요양원,주차장,제주특별자치도,연중무휴,00:00,23:59,N,Y,AC3상+DC차데모 +DC콤보,0,1,N,제주특별자치도 제주시 구좌읍 동김길 150,,제주특별자치도,1899-8852,33.547644,126.7316366,2019-06-30,6500000,제주특별자치도,
농산물원종장,주차장,제주특별자치도,연중무휴,00:00,23:59,Y,N,,1,0,N,제주특별자치도 제주시 애월읍 월각로 563-20,,제주특별자치도,1899-8852,33.3755161,126.3286573,2019-06-30,6500000,제주특별자치도,
애월119센터,주차장,제주특별자치도,연중무휴,00:00,23:59,Y,N,,1,0,N,제주특별자치도 제주시 애월읍 일주서로 6513,,제주특별자치도,1899-8852,33.4666589,126.3488567,2019-06-30,6500000,제주특별자치도,
애월119센터,주차장,제주특별자치도,연중무휴,00:00,23:59,N,Y,AC3상+DC차데모 +DC콤보,0,2,N,제주특별자치도 제주시 애월읍 일주서로 6513,,한국전력,1899-2100,33.4666589,126.3488567,2019-06-30,6500000,제주특별자치도,
애월체육관,주차장,제주특별자치도,연중무휴,00:00,23:59,Y,N,,2,0,N,제주특별자치도 제주시 애월읍 일주서로 6349,,제주특별자치도,1899-8852,33.46298979,126.3319658,2019-06-30,6500000,제주특별자치도,
제주농업기술센터,주차장,제주특별자치도,연중무휴,00:00,23:59,Y,N,,1,0,N,제주특별자치도 제주시 애월읍 상귀길 173,,제주특별자치도,1899-8852,33.4592643,126.403769,2019-06-30,6500000,제주특별자치도,
제주농업기술센터,주차장,제주특별자치도,연중무휴,00:00,23:59,N,Y,AC3상+DC차데모 +DC콤보,0,1,N,제주특별자치도 제주시 애월읍 상귀길 173,,환경부(한국자동차환경협회),1661-9408,33.4592643,126.403769,2019-06-30,6500000,제주특별자치도,
우도면사무소,주차장,제주특별자치도,연중무휴,00:00,23:59,Y,N,,1,0,N,제주특별자치도 제주시 우도면 우도로 153,,제주특별자치도,1899-8852,33.5063307,126.953232,2019-06-30,6500000,제주특별자치도,
우도보건지소,주차장,제주특별자치도,연중무휴,00:00,23:59,Y,N,,1,0,N,제주특별자치도 제주시 우도면 우도로 153,,제주특별자치도,1899-8852,33.5063307,126.953232,2019-06-30,6500000,제주특별자치도,
상하수도본부,주차장,제주특별자치도,연중무휴,00:00,23:59,Y,Y,AC3상+DC차데모 +DC콤보,2,1,N,제주특별자치도 제주시 조천읍 중산간동로 601,,제주특별자치도,1899-8852,33.4996454,126.6503584,2019-06-30,6500000,제주특별자치도,
상하수도본부,주차장,제주특별자치도,연중무휴,00:00,23:59,N,Y,AC3상+DC차데모 +DC콤보,0,1,N,제주특별자치도 제주시 조천읍 중산간동로 601,,환경부(한국자동차환경협회),1661-9408,33.4996454,126.6503584,2019-06-30,6500000,제주특별자치도,
제주돌문화공원,주차장,제주특별자치도,연중무휴,00:00,23:59,Y,N,,1,0,N,제주특별자치도 제주시 조천읍 남조로 2023,,제주특별자치도,1899-8852,33.4486627,126.6589493,2019-06-30,6500000,제주특별자치도,
제주돌문화공원,주차장,제주특별자치도,연중무휴,00:00,23:59,N,Y,AC3상+DC차데모 +DC콤보,0,4,N,제주특별자치도 제주시 조천읍 남조로 2023,,환경부(한국자동차환경협회),1661-9408,33.4486627,126.6589493,2019-06-30,6500000,제주특별자치도,
제주동물위생시험소,주차장,제주특별자치도,연중무휴,00:00,23:59,N,Y,AC3상+DC차데모 +DC콤보,0,1,N,제주특별자치도 제주시 조천읍 번영로 941,,제주특별자치도,1899-8852,33.4757908,126.6381228,2019-06-30,6500000,제주특별자치도,
제주세계자연유산센터,주차장,제주특별자치도,연중무휴,00:00,23:59,N,Y,AC3상+DC차데모 +DC콤보,0,3,N,제주특별자치도 제주시 조천읍 선교로 569-36,,제주특별자치도,1899-8852,33.4569205,126.7147513,2019-06-30,6500000,제주특별자치도,
조천 항일기념관,주차장,제주특별자치도,연중무휴,00:00,23:59,Y,N,,1,0,N,　제주특별자치도 제주시 조천읍 신북로 303,,제주특별자치도,1899-8852,33.5415236,126.6425739,2019-06-30,6500000,제주특별자치도,
조천 항일기념관,주차장,제주특별자치도,연중무휴,00:00,23:59,N,Y,DC콤보,0,2,N,　제주특별자치도 제주시 조천읍 신북로 303,,환경부(한국자동차환경협회),1661-9408,33.5415236,126.6425739,2019-06-30,6500000,제주특별자치도,
조천119센터,주차장,제주특별자치도,연중무휴,00:00,23:59,Y,N,,1,0,N,제주특별자치도 제주시 조천리 833-5,제주특별자치도 제주시 조천리 833-5,제주특별자치도,1899-8852,33.5410941,126.6469034,2019-06-30,6500000,제주특별자치도,
조천119센터,주차장,제주특별자치도,연중무휴,00:00,23:59,N,Y,AC3상+DC차데모 +DC콤보,0,1,N,제주특별자치도 제주시 조천리 833-5,제주특별자치도 제주시 조천리 833-5,한국전력,1899-2100,33.5410941,126.6469034,2019-06-30,6500000,제주특별자치도,
조천읍사무소,주차장,제주특별자치도,연중무휴,00:00,23:59,Y,Y,AC3상+DC차데모 +DC콤보,3,1,N,제주특별자치도 제주시 조천읍 신북로 194,,제주특별자치도,1899-8852,33.5345995,126.6342946,2019-06-30,6500000,제주특별자치도,
조천읍사무소,주차장,제주특별자치도,연중무휴,00:00,23:59,N,Y,DC콤보,0,2,N,제주특별자치도 제주시 조천읍 신북로 194,,환경부(한국자동차환경협회),1661-9408,33.5345995,126.6342946,2019-06-30,6500000,제주특별자치도,
조천체육관,주차장,제주특별자치도,연중무휴,00:00,23:59,N,Y,AC3상+DC차데모 +DC콤보,0,1,N,제주특별자치도 제주시 조천읍 조천18길 11-1,,제주특별자치도,1899-8852,33.5397165,126.6439447,2019-06-30,6500000,제주특별자치도,
조천체육관,주차장,제주특별자치도,연중무휴,00:00,23:59,N,Y,AC3상+DC차데모 +DC콤보,0,1,N,제주특별자치도 제주시 조천읍 조천18길 11-1,,환경부(한국자동차환경협회),1661-9408,33.5397165,126.6439447,2019-06-30,6500000,제주특별자치도,
추자도보건지소,주차장,제주특별자치도,연중무휴,00:00,23:59,Y,N,,1,0,N,제주특별자치도 제주시 영흥리 364-13,제주특별자치도 제주시 영흥리 364-13,제주특별자치도,1899-8852,33.9604004,126.2960433,2019-06-30,6500000,제주특별자치도,
추자면사무소,주차장,제주특별자치도,연중무휴,00:00,23:59,Y,N,,1,0,N,제주특별자치도 제주시 추자면 추자로 26,,제주특별자치도,1899-8852,33.96370145,126.2960688,2019-06-30,6500000,제주특별자치도,
추자면사무소,주차장,제주특별자치도,연중무휴,00:00,23:59,N,Y,AC3상+DC차데모 +DC콤보,0,1,N,제주특별자치도 제주시 추자면 추자로 26,,환경부(한국자동차환경협회),1661-9408,33.96370145,126.2960688,2019-06-30,6500000,제주특별자치도,
제주서부하수처리장,주차장,제주특별자치도,연중무휴,00:00,23:59,Y,N,,1,0,N,제주특별자치도 제주시 한경면 판포리 1608,제주특별자치도 제주시 한경면 판포리 1608,제주특별자치도,1899-8852,33.370031,126.2062628,2019-06-30,6500000,제주특별자치도,
한경면사무소,주차장,제주특별자치도,연중무휴,00:00,23:59,Y,Y,AC3상+DC차데모 +DC콤보,2,1,N,제주특별자치도 제주시 한경면 두신로 84(신창리),,제주특별자치도,1899-8852,33.35011034,126.1841057,2019-06-30,6500000,제주특별자치도,
서부농업기술센터,주차장,제주특별자치도,연중무휴,00:00,23:59,Y,N,,2,0,N,제주특별자치도 제주시 한림읍 월림7길 90,,제주특별자치도,1899-8852,33.353628,126.2483963,2019-06-30,6500000,제주특별자치도,
서부농업기술센터,주차장,제주특별자치도,연중무휴,00:00,23:59,N,Y,AC3상+DC차데모 +DC콤보,0,2,N,제주특별자치도 제주시 한림읍 월림7길 90,,한국전력,1899-2100,33.353628,126.2483963,2019-06-30,6500000,제주특별자치도,
서부보건소,주차장,제주특별자치도,연중무휴,00:00,23:59,Y,N,,8,0,N,제주특별자치도 제주시 한림읍 강구로 5,,제주특별자치도,1899-8852,33.4123118,126.2696764,2019-06-30,6500000,제주특별자치도,
서부소방서,주차장,제주특별자치도,연중무휴,00:00,23:59,Y,N,,3,0,N,제주특별자치도 제주시 한림읍 한림중앙로 150,,제주특별자치도,1899-8852,33.4024456,126.270402,2019-06-30,6500000,제주특별자치도,
서부소방서,주차장,제주특별자치도,연중무휴,00:00,23:59,N,Y,AC3상+DC차데모 +DC콤보,0,2,N,제주특별자치도 제주시 한림읍 한림중앙로 150,,한국전력,1899-2100,33.4024456,126.270402,2019-06-30,6500000,제주특별자치도,
한림읍사무소,주차장,제주특별자치도,연중무휴,00:00,23:59,Y,N,,1,0,N,제주특별자치도 제주시 한림읍 한림상로 132,,제주특별자치도,1899-8852,33.410104,126.2670984,2019-06-30,6500000,제주특별자치도,
한림읍사무소,주차장,제주특별자치도,연중무휴,00:00,23:59,N,Y,AC3상+DC차데모 +DC콤보,0,1,N,제주특별자치도 제주시 한림읍 한림상로 132,,환경부(한국자동차환경협회),1661-9408,33.410104,126.2670984,2019-06-30,6500000,제주특별자치도,
한림체육관,주차장,제주특별자치도,연중무휴,00:00,23:59,Y,N,,1,0,N,제주특별자치도 제주시 한림읍 한림중앙로 71-9,,제주특별자치도,1899-8852,33.4089702,126.2684786,2019-06-30,6500000,제주특별자치도,
한림체육관,주차장,제주특별자치도,연중무휴,00:00,23:59,N,Y,AC3상+DC차데모 +DC콤보,0,3,N,제주특별자치도 제주시 한림읍 한림중앙로 71-9,,환경부(한국자동차환경협회),1661-9408,33.4089702,126.2684786,2019-06-30,6500000,제주특별자치도,
한림체육관,주차장,제주특별자치도,연중무휴,00:00,23:59,N,Y,AC3상+DC차데모 +DC콤보,0,2,N,제주특별자치도 제주시 한림읍 한림중앙로 71-9,,한국전력,1899-2100,33.4089702,126.2684786,2019-06-30,6500000,제주특별자치도,
국립제주박물관,주차장,제주특별자치도,연중무휴,00:00,23:59,N,Y,AC3상+DC차데모 +DC콤보,0,2,N,제주특별자치도 제주시 일주동로 17(건입동),,한국전력,1899-2100,33.5139974,126.5489702,2019-06-30,6500000,제주특별자치도,
제주소방서 항만119센터,주차장,제주특별자치도,연중무휴,00:00,23:59,N,Y,AC3상+DC차데모,0,1,N,제주특별자치도 제주시 임항로 146(건입동),,환경부(한국자동차환경협회),1661-9408,33.5201279,126.5393656,2019-06-30,6500000,제주특별자치도,
제주해양경비안전서,주차장,제주특별자치도,연중무휴,00:00,23:59,N,Y,AC3상+DC차데모 +DC콤보,0,2,N,제주특별자치도 제주시 임항로 154(건입동),,한국전력,1899-2100,33.519783,126.5403164,2019-06-30,6500000,제주특별자치도,
구좌체육관,주차장,제주특별자치도,연중무휴,00:00,23:59,N,Y,AC3상+DC차데모 +DC콤보,0,1,N,제주특별자치도 제주시 구좌읍 김녕로 209,,환경부(한국자동차환경협회),1661-9408,33.5561992,126.7616506,2019-06-30,6500000,제주특별자치도,
만장굴,주차장,제주특별자치도,연중무휴,00:00,23:59,N,Y,AC3상+DC차데모 +DC콤보,0,1,N,제주특별자치도 제주시 구좌읍 만장굴길 182,,환경부(한국자동차환경협회),1661-9408,33.5291000,126.7714308,2019-06-30,6500000,제주특별자치도,
비자림,주차장,제주특별자치도,연중무휴,00:00,23:59,N,Y,AC3상+DC차데모,0,1,N,제주특별자치도 제주시 구좌읍 비자숲길 55,,환경부(한국자동차환경협회),1661-9408,33.4913168,126.8113883,2019-06-30,6500000,제주특별자치도,
세화오일장인근주차장,주차장,제주특별자치도,연중무휴,00:00,23:59,N,Y,AC3상+DC차데모 +DC콤보,0,1,N,제주특별자치도 제주시 구좌읍 세화리 1500-41,제주특별자치도 제주시 구좌읍 세화리 1500-41,환경부(한국자동차환경협회),1661-9408,33.4895966,126.8316644,2019-06-30,6500000,제주특별자치도,
용암해수산업화지원센터,주차장,제주특별자치도,연중무휴,00:00,23:59,N,Y,AC3상+DC차데모 +DC콤보,0,1,N,제주특별자치도 제주시 구좌읍 일주동로 2706-40,,환경부(한국자동차환경협회),1661-9408,33.5425855,126.8121733,2019-06-30,6500000,제주특별자치도,
해녀박물관,주차장,제주특별자치도,연중무휴,00:00,23:59,N,Y,AC3상+DC차데모 +DC콤보,0,1,N,제주특별자치도 제주시 구좌읍 일주동로 2706-40,,환경부(한국자동차환경협회),1661-9408,33.5425855,126.8121733,2019-06-30,6500000,제주특별자치도,
환경성질환예방관리센터,주차장,제주특별자치도,연중무휴,00:00,23:59,N,Y,AC3상+DC차데모 +DC콤보,0,1,N,제주특별자치도 제주시 구좌읍 다랑쉬북로 68-92,,환경부(한국자동차환경협회),1661-9408,33.48558365,126.8104242,2019-06-30,6500000,제주특별자치도,
어리목주차장,주차장,제주특별자치도,연중무휴,00:00,23:59,N,Y,AC3상+DC차데모,0,1,N,제주특별자치도 제주시 1100로 2070-61(해안동),,환경부(한국자동차환경협회),1661-9408,33.3922314,126.4945663,2019-06-30,6500000,제주특별자치도,
어리목주차장,주차장,제주특별자치도,연중무휴,00:00,23:59,N,Y,AC3상+DC차데모 +DC콤보,0,2,N,제주특별자치도 제주시 1100로 2070-61(해안동),,한국전력,1899-2100,33.3922314,126.4945663,2019-06-30,6500000,제주특별자치도,
해군호텔,주차장,제주특별자치도,연중무휴,00:00,23:59,N,Y,AC3상+DC차데모 +DC콤보,0,1,N,제주특별자치도 제주시 해안마을서2길 19,,환경부(한국자동차환경협회),1661-9408,33.4590325,126.448717,2019-06-30,6500000,제주특별자치도,
롯데마트신제주점,주차장,제주특별자치도,연중무휴,00:00,23:59,N,Y,AC3상+DC차데모 +DC콤보,0,1,N,제주특별자치도 제주시 노형동 708,제주특별자치도 제주시 노형동 708,환경부(한국자동차환경협회),1661-9408,33.4824201,126.4819325,2019-06-30,6500000,제주특별자치도,
오일시장일대공영주차장,주차장,제주특별자치도,연중무휴,00:00,23:59,N,Y,AC3상+DC차데모 +DC콤보,0,1,N,제주특별자치도 제주시 오일장서길 26(도두일동),,환경부(한국자동차환경협회),1661-9408,33.4974552,126.4747907,2019-06-30,6500000,제주특별자치도,
노루생태공원,주차장,제주특별자치도,연중무휴,00:00,23:59,N,Y,AC3상+DC차데모 +DC콤보,0,1,N,제주특별자치도 제주시 명림로 520(봉개동),,환경부(한국자동차환경협회),1661-9408,33.4444421,126.6266442,2019-06-30,6500000,제주특별자치도,
관음사휴게소,주차장,제주특별자치도,연중무휴,00:00,23:59,N,Y,AC3상+DC차데모,0,1,N,제주특별자치도 제주시 산록북로 588(오등동),,환경부(한국자동차환경협회),1661-9408,33.4218993,126.5503226,2019-06-30,6500000,제주특별자치도,
관음사휴게소,주차장,제주특별자치도,연중무휴,00:00,23:59,N,Y,AC3상+DC차데모 +DC콤보,0,1,N,제주특별자치도 제주시 산록북로 588(오등동),,한국전력,1899-2100,33.4218993,126.5503226,2019-06-30,6500000,제주특별자치도,
별빛누리공원,주차장,제주특별자치도,연중무휴,00:00,23:59,N,Y,AC3상+DC차데모 +DC콤보,0,1,N,제주특별자치도 제주시 선돌목동길 60(오등동),,환경부(한국자동차환경협회),1661-9408,33.4450231,126.5492487,2019-06-30,6500000,제주특별자치도,
아라지구공영주차장,주차장,제주특별자치도,연중무휴,00:00,23:59,N,Y,AC3상+DC차데모 +DC콤보,0,1,N,제주특별자치도 제주시 아라동 6140-4,제주특별자치도 제주시 아라동 6140-4(염광아파트옆),환경부(한국자동차환경협회),1661-9408,33.4703785,126.5476976,2019-06-30,6500000,제주특별자치도,
제주테크노파크방송통신융합센터,주차장,제주특별자치도,연중무휴,00:00,23:59,N,Y,AC3상+DC차데모 +DC콤보,0,1,N,제주특별자치도 제주시 첨단로 241(영평동),,환경부(한국자동차환경협회),1661-9408,33.451093,126.572006,2019-06-30,6500000,제주특별자치도,
탐라중학교공영주차장,주차장,제주특별자치도,연중무휴,00:00,23:59,N,Y,AC3상+DC차데모 +DC콤보,0,1,N,제주특별자치도 제주시 아라동 3008-1,제주특별자치도 제주시 아라동 3008-1,환경부(한국자동차환경협회),1661-9408,33.4763498,126.5450031,2019-06-30,6500000,제주특별자치도,
한국폴리텍대학 제주캠퍼스,주차장,제주특별자치도,연중무휴,00:00,23:59,N,Y,AC3상+DC차데모 +DC콤보,0,1,N,제주특별자치도 제주시 산천단동3길 2(아라일동),,환경부(한국자동차환경협회),1661-9408,33.4478624,126.5612608,2019-06-30,6500000,제주특별자치도,
한라생태숲,주차장,제주특별자치도,연중무휴,00:00,23:59,N,Y,AC3상+DC차데모 +DC콤보,0,1,N,제주특별자치도 제주시 516로2596(용강동),,환경부(한국자동차환경협회),1661-9408,33.430924,126.595761,2019-06-30,6500000,제주특별자치도,
녹고뫼 안트레안내센터,주차장,제주특별자치도,연중무휴,00:00,23:59,N,Y,AC3상+DC차데모 +DC콤보,0,1,N,제주특별자치도 제주시 애월읍 유수암리 1178-1,제주특별자치도 제주시 애월읍 유수암리 1178-1,환경부(한국자동차환경협회),1661-9408,33.4059516764,126.40796934,2019-06-30,6500000,제주특별자치도,
봉성리 종합복지회관,주차장,제주특별자치도,연중무휴,00:00,23:59,N,Y,AC3상+DC차데모 +DC콤보,0,1,N,제주특별자치도 제주시 애월읍 봉성로 105,,환경부(한국자동차환경협회),1661-9408,33.4221038,126.3124995,2019-06-30,6500000,제주특별자치도,
상가리사무소,주차장,제주특별자치도,연중무휴,00:00,23:59,N,Y,AC3상+DC차데모 +DC콤보,0,1,N,제주특별자치도 제주시 애월읍 상가중길 23,,환경부(한국자동차환경협회),1661-9408,33.4496848,126.3457585,2019-06-30,6500000,제주특별자치도,
애월도서관,주차장,제주특별자치도,연중무휴,00:00,23:59,N,Y,AC3상+DC차데모 +DC콤보,0,1,N,제주특별자치도 제주시 애월읍 일주서로 6339,,환경부(한국자동차환경협회),1661-9408,33.4633212,126.3314033,2019-06-30,6500000,제주특별자치도,
하귀1지구 공영주차장,주차장,제주특별자치도,연중무휴,00:00,23:59,N,Y,AC3상+DC차데모 +DC콤보,0,1,N,제주특별자치도 제주시 애월읍 하귀1리 176-3,제주특별자치도 제주시 애월읍 하귀1리 176-3,환경부(한국자동차환경협회),1661-9408,33.4845878,126.4177465,2019-06-30,6500000,제주특별자치도,
클럽다인리조트,주차장,제주특별자치도,연중무휴,00:00,23:59,N,Y,AC3상+DC차데모 +DC콤보,0,1,N,제주특별자치도 제주시 애월읍 애월해안로 400-9,,환경부(한국자동차환경협회),1661-9408,33.4710066,126.3514646,2019-06-30,6500000,제주특별자치도,
시리우스호텔,주차장,제주특별자치도,연중무휴,00:00,23:59,N,Y,AC3상+DC차데모 +DC콤보,0,1,N,제주특별자치도 제주시 연동 2334-4,제주특별자치도 제주시 연동 2334-4,환경부(한국자동차환경협회),1661-9408,33.4934468418,126.4909571,2019-06-30,6500000,제주특별자치도,
한라도서관,주차장,제주특별자치도,연중무휴,00:00,23:59,N,Y,AC3상+DC차데모 +DC콤보,0,1,N,제주특별자치도 제주시 오남로 221(오라이동),,환경부(한국자동차환경협회),1661-9408,33.4763664,126.516046,2019-06-30,6500000,제주특별자치도,
외도구획정리지구,주차장,제주특별자치도,연중무휴,00:00,23:59,N,Y,AC3상+DC차데모 +DC콤보,0,1,N,제주특별자치도 제주시 외도1동 482-1,제주특별자치도 제주시 외도1동 482-1,환경부(한국자동차환경협회),1661-9408,33.4899087,126.432638,2019-06-30,6500000,제주특별자치도,
외도부영2차아파트,주차장,제주특별자치도,연중무휴,00:00,23:59,N,Y,AC3상+DC차데모 +DC콤보,0,1,N,제주특별자치도 제주시 우평로 318(외도일동),,환경부(한국자동차환경협회),1661-9408,33.48498216,126.433522,2019-06-30,6500000,제주특별자치도,
제주국제공항,건물주차장1F,제주특별자치도,연중무휴,00:00,23:59,N,Y,AC3상+DC차데모 +DC콤보,0,1,Y,제주특별자치도 제주시 공항로 2(용담2동),,환경부(한국자동차환경협회),1661-9408,33.5063344,126.4952613,2019-06-30,6500000,제주특별자치도,
제주국제공항,야외주차장,제주특별자치도,연중무휴,00:00,23:59,Y,Y,AC3상+DC차데모 +DC콤보,6,9,Y,제주특별자치도 제주시 공항로 2(용담2동),,한국전력,1899-2100,33.5063344,126.4952613,2019-06-30,6500000,제주특별자치도,
삼성혈 인근 공영주차장,주차장,제주특별자치도,연중무휴,00:00,23:59,N,Y,AC3상+DC차데모 +DC콤보,0,1,N,제주특별자치도 제주시 이도1동 1293-1,제주특별자치도 제주시 이도1동 1293-1,환경부(한국자동차환경협회),1661-9408,33.5046445,126.5303835,2019-06-30,6500000,제주특별자치도,
도남e편한세상아파트1차,주차장,제주특별자치도,연중무휴,00:00,23:59,N,Y,AC3상+DC차데모 +DC콤보,0,2,N,제주특별자치도 제주시 오남로 7-13,,환경부(한국자동차환경협회),1661-9408,33.4949748,126.5226164,2019-06-30,6500000,제주특별자치도,
제주상공회의소 뒤 공영주차장,주차장,제주특별자치도,연중무휴,00:00,23:59,N,Y,AC3상+DC차데모 +DC콤보,0,1,N,제주특별자치도 제주시 도남동 574-3,제주특별자치도 제주시 도남동 574-3,환경부(한국자동차환경협회),1661-9408,33.4904195,126.5201501,2019-06-30,6500000,제주특별자치도,
신천지아파트,주차장,제주특별자치도,연중무휴,00:00,23:59,N,Y,AC3상+DC차데모 +DC콤보,0,1,N,제주특별자치도 제주시 천수로 72(일도이동),,환경부(한국자동차환경협회),1661-9408,33.50447886,126.5447864,2019-06-30,6500000,제주특별자치도,
영락교회 인근 공영주차장,주차장,제주특별자치도,연중무휴,00:00,23:59,Y,Y,AC3상+DC차데모 +DC콤보,1,2,N,제주특별자치도 제주시 일도2동 488-1,제주특별자치도 제주시 일도2동 488-1,환경부(한국자동차환경협회),1661-9408,33.5106341,126.5442435,2019-06-30,6500000,제주특별자치도,
거문오름 주차장,주차장,제주특별자치도,연중무휴,00:00,23:59,N,Y,AC3상+DC차데모,0,1,N,제주특별자치도 제주시 조천읍 선교로 569-36,,환경부(한국자동차환경협회),1661-9408,33.4569205,126.7147513,2019-06-30,6500000,제주특별자치도,
교래자연휴양림,주차장,제주특별자치도,연중무휴,00:00,23:59,N,Y,AC3상+DC차데모 +DC콤보,0,1,N,제주특별자치도 제주시 조천읍 남조로 2023,,환경부(한국자동차환경협회),1661-9408,33.4486627,126.6589493,2019-06-30,6500000,제주특별자치도,
람사르습지 주차장,주차장,제주특별자치도,연중무휴,00:00,23:59,N,Y,AC3상+DC차데모,0,1,N,제주특별자치도 제주시 조천읍 동백로 77,,환경부(한국자동차환경협회),1661-9408,33.50969881,126.7156674,2019-06-30,6500000,제주특별자치도,
산굼부리,주차장,제주특별자치도,연중무휴,00:00,23:59,N,Y,AC3상+DC차데모,0,1,N,제주특별자치도 제주시 조천읍 교래리 산38-2,제주특별자치도 제주시 조천읍 교래리 산38-2,환경부(한국자동차환경협회),1661-9408,33.4087482,126.635052,2019-06-30,6500000,제주특별자치도,
성판악휴게소,주차장,제주특별자치도,연중무휴,00:00,23:59,N,Y,AC3상+DC차데모 +DC콤보,0,1,N,제주특별자치도 제주시 조천읍 교래리 산137-2,제주특별자치도 제주시 조천읍 교래리 산137-2,환경부(한국자동차환경협회),1661-9408,33.4087482,126.635052,2019-06-30,6500000,제주특별자치도,
행운식품,주차장,제주특별자치도,연중무휴,00:00,23:59,N,Y,AC3상+DC차데모 +DC콤보,0,1,N,제주특별자치도 제주시 조천읍 함덕리 906번지,조천읍 함덕리 906번지,환경부(한국자동차환경협회),1661-9408,33.5368718,126.6699363,2019-06-30,6500000,제주특별자치도,
제주현대미술관,주차장,제주특별자치도,연중무휴,00:00,23:59,N,Y,AC3상+DC차데모 +DC콤보,0,2,N,제주특별자치도 제주시 한경면 저지14길 35,,환경부(한국자동차환경협회),1661-9408,33.33969225,126.2656922,2019-06-30,6500000,제주특별자치도,
한경도서관 앞 주차장,주차장,제주특별자치도,연중무휴,00:00,23:59,N,Y,AC3상+DC차데모 +DC콤보,0,1,N,제주특별자치도 제주시 한경면 신창리 233-1,제주특별자치도 제주시 한경면 신창리 233-1,환경부(한국자동차환경협회),1661-9408,33.3498289,126.1845735,2019-06-30,6500000,제주특별자치도,
한경체육관,주차장,제주특별자치도,연중무휴,00:00,23:59,N,Y,AC3상+DC차데모,0,1,N,제주특별자치도 제주시 한경면 칠전로 41,,환경부(한국자동차환경협회),1661-9408,33.3014102,126.1845554,2019-06-30,6500000,제주특별자치도,
한림공원 인근 공영주차장,주차장,제주특별자치도,연중무휴,00:00,23:59,N,Y,AC3상+DC차데모 +DC콤보,0,2,N,제주특별자치도 제주시 한림읍 금능리 2018,,환경부(한국자동차환경협회),1661-9408,33.3910691,126.2372035,2019-06-30,6500000,제주특별자치도,
(재)테크노파크 생물종다양성연구소,주차장,제주특별자치도,연중무휴,00:00,23:59,N,Y,AC3상+DC차데모 +DC콤보,0,1,N,제주특별자치도 서귀포시 남원읍 신례동로 338,,환경부(한국자동차환경협회),1661-9408,33.31464154,126.634748,2019-06-30,6500000,제주특별자치도,
(재)테크노파크 생물종다양성연구소,주차장,제주특별자치도,연중무휴,00:00,23:59,N,Y,AC3상+DC차데모 +DC콤보,0,4,N,제주특별자치도 서귀포시 남원읍 신례동로 338,,제주테크노파크,,33.31464154,126.634748,2019-06-30,6500000,제주특별자치도,
남원읍 공영주차장,주차장,제주특별자치도,연중무휴,00:00,23:59,N,Y,AC3상+DC차데모 +DC콤보,0,1,N,제주특별자치도 서귀포시 남원읍 남원리 84-2,제주특별자치도 서귀포시 남원읍 남원리 84-2,환경부(한국자동차환경협회),1661-9408,33.2788184,126.7214486,2019-06-30,6500000,제주특별자치도,
위미의례회관,주차장,제주특별자치도,연중무휴,00:00,23:59,N,Y,AC3상+DC차데모 +DC콤보,0,1,N,제주특별자치도 서귀포시 남원읍 중산간동로 6862,,환경부(한국자동차환경협회),1661-9408,33.2897921,126.657825,2019-06-30,6500000,제주특별자치도,
월드컵경기장 인근 공영주차장,주차장,제주특별자치도,연중무휴,00:00,23:59,N,Y,AC3상+DC차데모 +DC콤보,0,2,N,제주특별자치도 서귀포시 법환동 870,,환경부(한국자동차환경협회),1661-9408,33.2481172,126.5110332,2019-06-30,6500000,제주특별자치도,
서귀포혁신도시공영주차장(국토교통부인재개발원 앞),주차장,제주특별자치도,연중무휴,00:00,23:59,N,Y,AC3상+DC차데모 +DC콤보,0,1,N,제주특별자치도 서귀포시 서호동 1603,제주특별자치도 서귀포시 서호동 1603,환경부(한국자동차환경협회),1661-9408,33.2784399,126.5169922,2019-06-30,6500000,제주특별자치도,
대정감협 인근 공영주차장,주차장,제주특별자치도,연중무휴,00:00,23:59,N,Y,AC3상+DC차데모 +DC콤보,0,1,N,제주특별자치도 서귀포시 대정읍 하모리 964-2,제주특별자치도 서귀포시 대정읍 하모리 964-2,환경부(한국자동차환경협회),1661-9408,33.2230292,126.2520661,2019-06-30,6500000,제주특별자치도,
제주 곶자왈 도립공원입구,주차장,제주특별자치도,연중무휴,00:00,23:59,N,Y,AC3상+DC차데모 +DC콤보,0,1,N,제주특별자치도 서귀포시 대정읍 에듀시티로 178,,환경부(한국자동차환경협회),1661-9408,33.28322252,126.2735723,2019-06-30,6500000,제주특별자치도,
대정문화체육센터,주차장,제주특별자치도,연중무휴,00:00,23:59,N,Y,AC3상+DC차데모 +DC콤보,0,3,N,제주특별자치도 서귀포시 대정읍 동일리 3171,제주특별자치도 서귀포시 대정읍 동일리 3171,환경부(한국자동차환경협회),1661-9408,33.2633536,126.2351338,2019-06-30,6500000,제주특별자치도,
서귀포시민회관,주차장,제주특별자치도,연중무휴,00:00,23:59,N,Y,AC3상+DC차데모 +DC콤보,0,1,N,제주특별자치도 서귀포시 동홍로 31-7(동홍동),,환경부(한국자동차환경협회),1661-9408,33.25169148,126.5667351,2019-06-30,6500000,제주특별자치도,
서귀포 자기주도학습지원센터,주차장,제주특별자치도,연중무휴,00:00,23:59,N,Y,AC3상+DC차데모 +DC콤보,0,1,N,제주특별자치도 서귀포시 동홍중앙로7번길 19,,환경부(한국자동차환경협회),1661-9408,33.25129639,126.5703212,2019-06-30,6500000,제주특별자치도,
퐁낭작은도서관 앞 공영주차장(비석거리),주차장,제주특별자치도,연중무휴,00:00,23:59,N,Y,AC3상+DC차데모 +DC콤보,0,1,N,제주특별자치도 서귀포시 동홍중앙로 56(동홍동),,환경부(한국자동차환경협회),1661-9408,33.25544697,126.5722626,2019-06-30,6500000,제주특별자치도,
서귀포성당 뒤 주차장(솔동산로근처),주차장,제주특별자치도,연중무휴,00:00,23:59,N,Y,AC3상+DC차데모 +DC콤보,0,1,N,제주특별자치도 서귀포시 서귀동 600-3,제주특별자치도 서귀포시 서귀동 600-3,환경부(한국자동차환경협회),1661-9408,33.2436583,126.5629579,2019-06-30,6500000,제주특별자치도,
서귀포시 매일시장 공영주차장,주차장,제주특별자치도,연중무휴,00:00,23:59,N,Y,AC3상+DC차데모 +DC콤보,0,2,N,제주특별자치도 서귀포시 중앙로62번길 18(서귀동),,환경부(한국자동차환경협회),1661-9408,33.2501708,126.5636786,2019-06-30,6500000,제주특별자치도,
아랑조을거리 공영주차장,주차장,제주특별자치도,연중무휴,00:00,23:59,N,Y,AC3상+DC차데모 +DC콤보,0,1,N,제주특별자치도 서귀포시 서귀동 312-6,제주특별자치도 서귀포시 서귀동 312-6,환경부(한국자동차환경협회),1661-9408,33.2477823,126.5603076,2019-06-30,6500000,제주특별자치도,
모구리야영장,주차장,제주특별자치도,연중무휴,00:00,23:59,N,Y,AC3상+DC차데모 +DC콤보,0,1,N,제주특별자치도 서귀포시 성산읍 서성일로 260,,환경부(한국자동차환경협회),1661-9408,33.4059591,126.821694,2019-06-30,6500000,제주특별자치도,
성산읍 공영주차장,주차장,제주특별자치도,연중무휴,00:00,23:59,N,Y,AC3상+DC차데모 +DC콤보,0,1,N,제주특별자치도 서귀포시 성산읍 고성리 327-1,제주특별자치도 서귀포시 성산읍 고성리 327-1,환경부(한국자동차환경협회),1661-9408,33.4242095,126.931111,2019-06-30,6500000,제주특별자치도,
성산일출봉 공영주차장,주차장,제주특별자치도,연중무휴,00:00,23:59,Y,Y,AC3상+DC차데모 +DC콤보,1,3,N,제주특별자치도 서귀포시 성산읍 일출로 284-6,,환경부(한국자동차환경협회),1661-9408,33.4624691,126.9352237,2019-06-30,6500000,제주특별자치도,
일출랜드,주차장,제주특별자치도,연중무휴,09:00,18:00,N,Y,AC3상+DC차데모 +DC콤보,0,3,N,제주특별자치도 서귀포시 성산읍 중산간동로 4150-30,,환경부(한국자동차환경협회),1661-9408,33.3835243,126.8413634,2019-06-30,6500000,제주특별자치도,
봄그리고가을리조트,주차장,제주특별자치도,연중무휴,00:00,23:59,N,Y,AC3상+DC차데모 +DC콤보,0,1,N,제주특별자치도 서귀포시 성산읍 해맞이해안로 2660,,환경부(한국자동차환경협회),1661-9408,33.474087,126.9110984,2019-06-30,6500000,제주특별자치도,
성산포 공영주차장(야외),주차장,제주특별자치도,연중무휴,00:00,23:59,N,Y,AC3상+DC차데모 +DC콤보,0,6,N,제주특별자치도 서귀포시 성산읍 성산리 347-9,제주특별자치도 서귀포시 성산읍 성산리 347-9,환경부(한국자동차환경협회),1661-9408,33.4719123953,126.9331983,2019-06-30,6500000,제주특별자치도,
보목하수처리장,주차장,제주특별자치도,연중무휴,00:00,23:59,N,Y,AC3상+DC차데모 +DC콤보,0,1,N,제주특별자치도 서귀포시 보목로64번길 155(보목동),,환경부(한국자동차환경협회),1661-9408,33.243313,126.5914917,2019-06-30,6500000,제주특별자치도,
산방산 주차장,주차장,제주특별자치도,연중무휴,00:00,23:59,N,Y,AC3상+DC차데모,0,1,N,제주특별자치도 서귀포시 안덕면 사계리 163-1,제주특별자치도 서귀포시 안덕면 사계리 163-1,환경부(한국자동차환경협회),1661-9408,33.2359439,126.3119793,2019-06-30,6500000,제주특별자치도,
안덕우체국 뒤 주차장,주차장,제주특별자치도,연중무휴,00:00,23:59,N,Y,AC3상+DC차데모 +DC콤보,0,1,N,제주특별자치도 서귀포시 안덕면 화순리 1072,제주특별자치도 서귀포시 안덕면 화순리 1072,환경부(한국자동차환경협회),1661-9408,33.2462682,126.3353527,2019-06-30,6500000,제주특별자치도,
돈내코유원지 주차장,주차장,제주특별자치도,연중무휴,00:00,23:59,N,Y,AC3상+DC차데모 +DC콤보,0,1,N,제주특별자치도 서귀포시 돈내코로 114,,환경부(한국자동차환경협회),1661-9408,33.3003161,126.5847998,2019-06-30,6500000,제주특별자치도,
중문랜드,주차장,제주특별자치도,연중무휴,00:00,23:59,N,Y,AC3상+DC차데모 +DC콤보,0,1,N,제주특별자치도 서귀포시 소보리당로164번길 62(상예동),,환경부(한국자동차환경협회),1661-9408,33.2639753,126.3852041,2019-06-30,6500000,제주특별자치도,
중문관광단지,색달해변 북측주차장,제주특별자치도,연중무휴,00:00,23:59,N,Y,AC3상+DC차데모 +DC콤보,0,5,N,제주특별자치도 서귀포시 색달동 2889-1,제주특별자치도 서귀포시 색달동 2889-1,환경부(한국자동차환경협회),1661-9408,33.2814107,126.4111118,2019-06-30,6500000,제주특별자치도,
중문컨벤션센터,주차장,제주특별자치도,연중무휴,00:00,23:59,N,Y,AC3상+DC차데모 +DC콤보,0,2,N,제주특별자치도 서귀포시 중문관광로 224(중문동),,환경부(한국자동차환경협회),1661-9408,33.2413649,126.4245153,2019-06-30,6500000,제주특별자치도,
